step,t,v_cmd,v_fwd_body,yaw,yaw_rate,roll,pitch,base_z,reward_total,contact_count,contact_force_max,toe_z_min_b,residual_norm,q_delta_norm,pad_sink_max,pad_sink_mean,pad_top_z,done_reason,terminated,timeout
0,0.03333333507180214,0.258494108915329,-0.004114337731152773,-0.0006667794659733772,-0.020091116428375244,0.00099471234716475,0.0010066353715956211,1.083581566810608,-0.17162612080574036,0,9.999999974752427e-07,-0.36737456917762756,0.07557298243045807,0.007542431354522705,0.05688392370939255,0.0096780089661479,0.1596997231245041,running,0,0
1,0.06666667014360428,0.258494108915329,0.00046846354962326586,-0.0013205548748373985,-0.01972915604710579,0.002504257718101144,0.002002017805352807,1.0661453008651733,-0.7085124254226685,0,9.999999974752427e-07,-0.3654414713382721,0.3021036684513092,0.0301698949187994,0.05131223425269127,0.009850752539932728,0.16265705227851868,running,0,0
2,0.10000000894069672,0.258494108915329,0.0027310128789395094,-0.00196232832968235,-0.019453011453151703,0.004502946510910988,0.002994394861161709,1.037699580192566,-1.2623648643493652,0,9.999999974752427e-07,-0.3632349967956543,0.5668344497680664,0.056568533182144165,0.05394522845745087,0.009977217763662338,0.1641772985458374,running,0,0
3,0.13333334028720856,0.258494108915329,-0.07118378579616547,-0.003335881745442748,0.004559573717415333,0.007426742929965258,-0.003631630912423134,1.0089538097381592,0.12352972477674484,0,9.999999974752427e-07,-0.3609704375267029,0.7253798246383667,0.0723448246717453,0.05466513708233833,0.010115367360413074,0.1645175665616989,running,0,0
4,0.1666666716337204,0.258494108915329,0.04748416692018509,-0.00282135047018528,0.00023807630350347608,0.004391591064631939,-0.009688351303339005,1.0086724758148193,0.2855185270309448,0,9.999999974752427e-07,-0.3595259189605713,0.9182703495025635,0.09148620069026947,0.05417007952928543,0.010279619134962559,0.16406822204589844,running,0,0
5,0.20000000298023224,0.258494108915329,0.09534229338169098,-0.0027264493983238935,0.008960415609180927,0.0039122579619288445,-0.011464569717645645,1.008670449256897,0.405697762966156,0,9.999999974752427e-07,-0.359944611787796,0.9759305119514465,0.09690863639116287,0.05331761762499809,0.010435211472213268,0.16349054872989655,running,0,0
6,0.23333333432674408,0.258494108915329,0.15521380305290222,-0.0019652293995022774,0.02570316754281521,0.003810309572145343,-0.012158148922026157,1.0082651376724243,0.6129164099693298,0,9.999999974752427e-07,-0.3600972592830658,1.084969401359558,0.10728346556425095,0.05262439697980881,0.01056342851370573,0.1627943366765976,running,0,0
7,0.2666666805744171,0.258494108915329,0.21932704746723175,-0.001217322307638824,0.00956075917929411,0.003657713532447815,-0.012676370330154896,1.0077325105667114,0.8741356134414673,0,9.999999974752427e-07,-0.36263564229011536,1.2220367193222046,0.12024030089378357,0.05231243371963501,0.01064313668757677,0.16245394945144653,running,0,0
8,0.30000001192092896,0.258494108915329,0.27782613039016724,-0.0010184058919548988,0.0009032698580995202,0.0034974757581949234,-0.012744744308292866,1.0069977045059204,0.9461679458618164,0,9.999999974752427e-07,-0.36868584156036377,1.3839929103851318,0.13544762134552002,0.052179910242557526,0.01068288553506136,0.16183777153491974,running,0,0
9,0.3333333432674408,0.258494108915329,0.26376786828041077,0.00029465093393810093,0.06614496558904648,0.0021294865291565657,-0.013357028365135193,1.0064481496810913,0.7906964421272278,0,9.999999974752427e-07,-0.3761400878429413,1.5094257593154907,0.14658385515213013,0.052026133984327316,0.010694446973502636,0.1612403392791748,running,0,0
10,0.36666667461395264,0.258494108915329,0.23602500557899475,0.0037671364843845367,0.11177149415016174,0.002962755737826228,-0.01275276206433773,1.0058865547180176,0.6780902743339539,0,9.999999974752427e-07,-0.38102906942367554,1.471711277961731,0.14026512205600739,0.05199068784713745,0.010693438351154327,0.1608458012342453,running,0,0
11,0.4000000059604645,0.258494108915329,0.2563517093658447,0.005306356120854616,-0.00029622341389767826,0.005520461592823267,-0.009788600727915764,1.0050787925720215,0.956169605255127,0,9.999999974752427e-07,-0.3820262551307678,1.6457306146621704,0.15662434697151184,0.05216001346707344,0.01068885438144207,0.16072705388069153,running,0,0
12,0.4333333373069763,0.258494108915329,0.29391810297966003,0.005750434007495642,0.0003466985945124179,0.004681791178882122,-0.005984138697385788,1.0046870708465576,0.9074790477752686,0,9.999999974752427e-07,-0.3800537884235382,1.9849510192871094,0.18899697065353394,0.052868470549583435,0.010680601932108402,0.16087470948696136,running,0,0
13,0.46666666865348816,0.258494108915329,0.2884173095226288,0.007447167299687862,0.10284960269927979,0.002690801862627268,-0.005977313965559006,1.0040932893753052,0.7115578651428223,0,9.999999974752427e-07,-0.3771089017391205,1.8815321922302246,0.17521432042121887,0.05349259078502655,0.010672732256352901,0.16123197972774506,running,0,0
14,0.5,0.258494108915329,0.2313321828842163,0.010611689649522305,0.09819268435239792,-8.162116500898264e-06,-0.007965119555592537,1.001406192779541,0.6911314129829407,0,9.999999974752427e-07,-0.3709438741207123,1.8690732717514038,0.17272861301898956,0.05402905493974686,0.010668241418898106,0.16172058880329132,running,0,0
15,0.5333333611488342,0.258494108915329,0.21756279468536377,0.010340922512114048,-0.02597072906792164,0.0016208202578127384,-0.009025727398693562,1.000626564025879,0.8331693410873413,0,9.999999974752427e-07,-0.362311989068985,1.98850679397583,0.1861175000667572,0.0544927716255188,0.010668186470866203,0.16225968301296234,running,0,0
16,0.5666667222976685,0.258494108915329,0.20977266132831573,0.00836546067148447,-0.0698462724685669,0.003978413995355368,-0.0061759487725794315,0.9996099472045898,0.7467908263206482,0,9.999999974752427e-07,-0.355011522769928,2.293250560760498,0.21859708428382874,0.05512086674571037,0.010674048215150833,0.16277803480625153,running,0,0
17,0.6000000834465027,0.258494108915329,0.2274588942527771,0.005627256818115711,-0.05393929407000542,0.007452176883816719,-0.0027332077734172344,0.9994573593139648,0.7579293847084045,0,9.999999974752427e-07,-0.3496342599391937,2.3435122966766357,0.22385495901107788,0.0556551031768322,0.010684140957891941,0.16322363913059235,running,0,0
18,0.6333334445953369,0.258494108915329,0.29268357157707214,0.003529877169057727,-0.06706386059522629,0.009213370271027088,-0.0029191714711487293,1.0002954006195068,0.709093451499939,0,9.999999974752427e-07,-0.357867032289505,2.491563320159912,0.23909100890159607,0.056074440479278564,0.010697090066969395,0.16356785595417023,running,0,0
19,0.6666668057441711,0.258494108915329,0.2826939523220062,0.001520003192126751,-0.06757053732872009,0.008807811886072159,-0.0012571347178891301,0.998943030834198,0.8208270072937012,0,9.999999974752427e-07,-0.3702284097671509,2.2553415298461914,0.21388235688209534,0.05639024078845978,0.010712262243032455,0.16380596160888672,running,0,0
20,0.7000001668930054,0.258494108915329,0.33053624629974365,-0.0015304257394745946,-0.09643077850341797,0.009051327593624592,0.0007392744300886989,0.998833954334259,0.5648671984672546,0,9.999999974752427e-07,-0.3811380863189697,2.6146814823150635,0.25087693333625793,0.056619059294462204,0.01072516106069088,0.16395239531993866,running,0,0
21,0.7333335280418396,0.258494108915329,0.26620280742645264,-0.004379712976515293,-0.08763562142848969,0.007176224607974291,0.0042517962865531445,0.9970435500144958,0.7697634100914001,0,9.999999974752427e-07,-0.3864373564720154,2.43524169921875,0.2312370240688324,0.05678727105259895,0.010738142766058445,0.16403305530548096,running,0,0
22,0.7666668891906738,0.258494108915329,0.3094213604927063,-0.006362531799823046,-0.05210207775235176,0.005248910281807184,0.008634021505713463,0.9969050884246826,0.719282865524292,0,9.999999974752427e-07,-0.3901576101779938,2.517488956451416,0.2388225644826889,0.0569172166287899,0.01075039617717266,0.16407613456249237,running,0,0
23,0.8000002503395081,0.258494108915329,0.23874890804290771,-0.007739444728940725,-0.04812713339924812,0.0017025538254529238,0.01417862344533205,0.9950466752052307,0.824455976486206,0,9.999999974752427e-07,-0.3889588415622711,2.37172794342041,0.22203844785690308,0.057016149163246155,0.010761252604424953,0.16410581767559052,running,0,0
24,0.8333336114883423,0.258494108915329,0.260653018951416,-0.008155498653650284,-0.027975251898169518,-0.0014989788178354502,0.020327117294073105,0.9948900938034058,0.7540178894996643,0,9.999999974752427e-07,-0.3871806561946869,2.5165882110595703,0.235951229929924,0.05710165947675705,0.01077064499258995,0.16413702070713043,running,0,0
25,0.8666669726371765,0.258494108915329,0.2511661946773529,-0.00815107487142086,0.01908448338508606,9.699820111563895e-07,0.017880311235785484,0.9941606521606445,0.8973930478096008,0,9.999999974752427e-07,-0.38230565190315247,2.418085813522339,0.22361166775226593,0.05717356503009796,0.010778464376926422,0.16417467594146729,running,0,0
26,0.9000003337860107,0.258494108915329,0.25142785906791687,-0.0078305434435606,0.008447890169918537,9.160901390714571e-05,0.017211733385920525,0.9942877292633057,0.8532687425613403,0,9.999999974752427e-07,-0.3746228516101837,2.6320905685424805,0.244742751121521,0.05723721161484718,0.010784906335175037,0.16421687602996826,running,0,0
27,0.933333694934845,0.258494108915329,0.2588084042072296,-0.006712163332849741,0.036478083580732346,-0.0011821200605481863,0.015981396660208702,0.9943269491195679,0.8058996200561523,0,9.999999974752427e-07,-0.3650929629802704,2.8518617153167725,0.2687937319278717,0.05728530138731003,0.010790079832077026,0.16425801813602448,running,0,0
28,0.9666670560836792,0.258494108915329,0.22239555418491364,-0.005079622846096754,0.053647760301828384,-0.00046079885214567184,0.012969114817678928,0.9944594502449036,0.745381236076355,0,9.999999974752427e-07,-0.36082059144973755,2.6950371265411377,0.24999120831489563,0.057323627173900604,0.01079405564814806,0.16429279744625092,running,0,0
29,1.0000003576278687,0.258494108915329,0.1787736415863037,-0.002738933078944683,0.07796427607536316,0.0014151182258501649,0.008422165177762508,0.9944574236869812,0.5816431045532227,0,9.999999974752427e-07,-0.3554456830024719,2.657771110534668,0.24810560047626495,0.05734969675540924,0.010797342285513878,0.16431760787963867,running,0,0
30,1.033333659172058,0.258494108915329,0.13709211349487305,0.0005290517583489418,0.09592732042074203,0.004827126860618591,0.0015160420443862677,0.9941728115081787,0.37046098709106445,0,9.999999974752427e-07,-0.35177233815193176,2.6453893184661865,0.24870580434799194,0.05736925080418587,0.010800087824463844,0.16433165967464447,running,0,0
31,1.0666669607162476,0.258494108915329,0.28307193517684937,0.0027993503026664257,0.05527173727750778,0.003068220568820834,-0.002459840150550008,0.997197687625885,0.6731815934181213,0,9.999999974752427e-07,-0.3492085337638855,2.7536327838897705,0.2618257999420166,0.05749530345201492,0.010802414268255234,0.16433696448802948,running,0,0
32,1.100000262260437,0.258494108915329,0.3083623945713043,0.00438718544319272,0.023378590121865273,-0.0008355352911166847,-0.008028118871152401,0.9975669384002686,0.7668407559394836,0,9.999999974752427e-07,-0.3471679091453552,2.2595596313476562,0.2110385298728943,0.057799361646175385,0.010804586112499237,0.1643364429473877,running,0,0
33,1.1333335638046265,0.258494108915329,0.2607932388782501,0.007367099169641733,0.11842130869626999,0.0002165208716178313,-0.011759959161281586,0.9992152452468872,0.6002275347709656,0,9.999999974752427e-07,-0.34558236598968506,2.0367088317871094,0.18543191254138947,0.058056607842445374,0.010806477628648281,0.1643330305814743,running,0,0
34,1.166666865348816,0.258494108915329,0.2952088713645935,0.011631734669208527,0.11730170994997025,0.001143619534559548,-0.013762657530605793,1.0014201402664185,0.49265390634536743,0,9.999999974752427e-07,-0.35114938020706177,2.263982057571411,0.21160148084163666,0.05827029049396515,0.01080822292715311,0.16432888805866241,running,0,0
35,1.2000001668930054,0.258494108915329,0.2244548201560974,0.015460975468158722,0.12425466626882553,0.0005272841081023216,-0.017089469358325005,1.0014052391052246,0.5643652677536011,0,9.999999974752427e-07,-0.36394625902175903,1.993205189704895,0.18374668061733246,0.058444611728191376,0.010809877887368202,0.16432508826255798,running,0,0
36,1.2333334684371948,0.258494108915329,0.27239692211151123,0.0178349819034338,0.04996710643172264,0.00032042639213614166,-0.018850412219762802,1.0022554397583008,0.7034648060798645,0,9.999999974752427e-07,-0.3723049461841583,2.3206207752227783,0.21977579593658447,0.058584876358509064,0.010811114683747292,0.1643221080303192,running,0,0
37,1.2666667699813843,0.258494108915329,0.27684083580970764,0.018676646053791046,0.014604599215090275,-0.0020723892375826836,-0.021999193355441093,1.002002477645874,0.8238332867622375,0,9.999999974752427e-07,-0.3799436390399933,2.2230067253112793,0.2101900726556778,0.058696240186691284,0.010812201537191868,0.16431938111782074,running,0,0
38,1.3000000715255737,0.258494108915329,0.3044101297855377,0.01964477077126503,0.03475911170244217,-0.004025535192340612,-0.02611394412815571,1.0021088123321533,0.6846688389778137,0,9.999999974752427e-07,-0.3896181881427765,2.217169761657715,0.21008002758026123,0.05878373235464096,0.01081300713121891,0.16431714594364166,running,0,0
39,1.3333333730697632,0.258494108915329,0.3031291961669922,0.021652890369296074,0.08004840463399887,-0.005921163130551577,-0.031389012932777405,1.0009328126907349,0.6235658526420593,0,9.999999974752427e-07,-0.392691969871521,2.3151581287384033,0.21999582648277283,0.05885174870491028,0.01081380806863308,0.16431519389152527,running,0,0
40,1.3666666746139526,0.258494108915329,0.2624918520450592,0.022790465503931046,0.03701789677143097,-0.005735414568334818,-0.031752534210681915,1.0010972023010254,0.7168662548065186,0,9.999999974752427e-07,-0.39160117506980896,2.3516414165496826,0.2231627255678177,0.058903977274894714,0.010814106091856956,0.16431327164173126,running,0,0
41,1.399999976158142,0.258494108915329,0.28896522521972656,0.023560648784041405,-0.02860274538397789,-0.006750629283487797,-0.028938012197613716,0.9998754858970642,0.7650278210639954,0,9.999999974752427e-07,-0.3872472643852234,2.4378178119659424,0.23058709502220154,0.05894341319799423,0.010814505629241467,0.16431085765361786,running,0,0
42,1.4333332777023315,0.258494108915329,0.25598278641700745,0.023076293990015984,-0.0020835723262280226,-0.00671342434361577,-0.028794050216674805,0.9989984631538391,0.834230363368988,0,9.999999974752427e-07,-0.3798987567424774,2.6305394172668457,0.24915635585784912,0.058972641825675964,0.01081471610814333,0.16430863738059998,running,0,0
43,1.466666579246521,0.258494108915329,0.24027413129806519,0.02292178012430668,-0.011648574844002724,-0.005553563591092825,-0.02550201676785946,0.9985553026199341,0.8099707961082458,0,9.999999974752427e-07,-0.3725612759590149,2.5860347747802734,0.24248138070106506,0.05899343639612198,0.010814695619046688,0.16430671513080597,running,0,0
44,1.4999998807907104,0.258494108915329,0.21689997613430023,0.022570401430130005,-0.018022481352090836,-0.003297123359516263,-0.01806008443236351,0.9975703954696655,0.806872546672821,0,9.999999974752427e-07,-0.3672565817832947,2.500189781188965,0.23295097053050995,0.05900758504867554,0.010814801789820194,0.16430558264255524,running,0,0
45,1.5333331823349,0.258494108915329,0.2300354391336441,0.020623110234737396,-0.06649883091449738,-0.0006296316860243678,-0.012973734177649021,0.9977102279663086,0.6094059348106384,0,9.999999974752427e-07,-0.3632117211818695,2.3616786003112793,0.21740835905075073,0.059016451239585876,0.010814678855240345,0.16430525481700897,running,0,0
46,1.5666664838790894,0.258494108915329,0.2567245662212372,0.018107116222381592,-0.0642695501446724,-0.0005463393172249198,-0.0071612014435231686,0.9989401698112488,0.724282443523407,0,9.999999974752427e-07,-0.36002546548843384,2.1066179275512695,0.18842309713363647,0.059021010994911194,0.010814675129950047,0.16430526971817017,running,0,0
47,1.5999997854232788,0.258494108915329,0.2626056671142578,0.01419589389115572,-0.14371556043624878,0.000862593820784241,0.0008853278704918921,1.0006080865859985,0.49425065517425537,0,9.999999974752427e-07,-0.35716018080711365,2.2630419731140137,0.2046251744031906,0.05902249366044998,0.010814640671014786,0.1643054485321045,running,0,0
48,1.6333330869674683,0.258494108915329,0.28157109022140503,0.009091111831367016,-0.1384686976671219,-5.028400482842699e-05,0.007229497190564871,1.0005171298980713,0.6140766143798828,0,9.999999974752427e-07,-0.3598394989967346,2.229395627975464,0.19947978854179382,0.0590217188000679,0.01081459317356348,0.1643056720495224,running,0,0
49,1.6666663885116577,0.258494108915329,0.3230613172054291,0.0077446154318749905,-0.008910184726119041,-0.0051461439579725266,0.013232060708105564,0.999277651309967,0.8095217943191528,0,9.999999974752427e-07,-0.36526867747306824,2.1397178173065186,0.1876315325498581,0.05901963263750076,0.01081459503620863,0.16430580615997314,running,0,0
50,1.6999996900558472,0.258494108915329,0.3248528242111206,0.006068676244467497,-0.08296030759811401,-0.007811404764652252,0.02091948501765728,0.9983686208724976,0.5848851799964905,0,9.999999974752427e-07,-0.37501251697540283,2.23832631111145,0.19685910642147064,0.0590168833732605,0.010814476758241653,0.16430599987506866,running,0,0
51,1.7333329916000366,0.258494108915329,0.35907042026519775,0.0012261457741260529,-0.17730416357517242,-0.007753694895654917,0.02931912988424301,0.998271107673645,0.19748856127262115,0,9.999999974752427e-07,-0.38731467723846436,2.6758360862731934,0.24464154243469238,0.05901394784450531,0.010814500972628593,0.16430632770061493,running,0,0
52,1.766666293144226,0.258494108915329,0.2746812701225281,-0.0032942350953817368,-0.1210169866681099,-0.00955022033303976,0.04139327257871628,0.9972044229507446,0.577276885509491,0,9.999999974752427e-07,-0.39284777641296387,2.6242692470550537,0.23870514333248138,0.059011124074459076,0.010814575478434563,0.16430652141571045,running,0,0
53,1.7999995946884155,0.258494108915329,0.29390671849250793,-0.006048439536243677,-0.028946053236722946,-0.016148699447512627,0.05021657422184944,0.9937201738357544,0.6842106580734253,0,9.999999974752427e-07,-0.39281943440437317,2.2746994495391846,0.19912271201610565,0.05900854617357254,0.01081443578004837,0.1643069088459015,running,0,0
54,1.833332896232605,0.258494108915329,0.3349727690219879,-0.005010434426367283,0.032032594084739685,-0.01614021696150303,0.048937682062387466,0.9932429194450378,0.6122268438339233,0,9.999999974752427e-07,-0.38863974809646606,2.5251588821411133,0.22671090066432953,0.05900626629590988,0.010814503766596317,0.16430725157260895,running,0,0
55,1.8666661977767944,0.258494108915329,0.3160954415798187,-0.0022555955220013857,0.09971462190151215,-0.010441083461046219,0.037987686693668365,0.9908352494239807,0.548603892326355,0,9.999999974752427e-07,-0.3817444145679474,2.670078754425049,0.24204200506210327,0.05900431424379349,0.010814454406499863,0.1643073707818985,running,0,0
56,1.8999994993209839,0.258494108915329,0.2945244014263153,0.0011170757934451103,0.10428190231323242,-0.00675717368721962,0.03028767555952072,0.9902186393737793,0.6092481017112732,0,9.999999974752427e-07,-0.3738075792789459,2.7459261417388916,0.24956169724464417,0.05900263041257858,0.010814412496984005,0.16430769860744476,running,0,0
57,1.9333328008651733,0.258494108915329,0.31639471650123596,0.002824007533490658,0.008154964074492455,-0.0047408477403223515,0.024601677432656288,0.9907919764518738,0.7393929362297058,0,9.999999974752427e-07,-0.3677351772785187,2.798788070678711,0.25596126914024353,0.059001386165618896,0.010814483277499676,0.16430792212486267,running,0,0
58,1.9666661024093628,0.258494108915329,0.25340357422828674,0.00390735873952508,0.05590049549937248,-0.0021353026386350393,0.01828908734023571,0.9894965887069702,0.828872561454773,0,9.999999974752427e-07,-0.36360839009284973,2.706484794616699,0.24797263741493225,0.05900053679943085,0.010814421810209751,0.16430829465389252,running,0,0
59,1.9999994039535522,0.258494108915329,0.2032795548439026,0.004161447752267122,0.0036539447028189898,-0.0007506012334488332,0.013481203466653824,0.9895163178443909,0.7996426820755005,0,9.999999974752427e-07,-0.3609768748283386,2.655015707015991,0.24469462037086487,0.05900002270936966,0.010814379900693893,0.16430887579917908,running,0,0
60,2.0333328247070312,0.258494108915329,0.12215659022331238,0.004876559600234032,0.018767530098557472,-0.0007478812476620078,0.01080910675227642,0.989396333694458,0.47306597232818604,0,9.999999974752427e-07,-0.3591916859149933,2.7039546966552734,0.2520751655101776,0.05899985879659653,0.010814412496984005,0.16430947184562683,running,0,0
61,2.0666661262512207,0.258494108915329,0.24604704976081848,0.005614061839878559,0.014387446455657482,-0.0015266233822330832,0.00738551327958703,0.9901579022407532,0.7664544582366943,0,9.999999974752427e-07,-0.3579694330692291,2.637974739074707,0.2469015121459961,0.05900011211633682,0.010814430192112923,0.16430990397930145,running,0,0
62,2.09999942779541,0.258494108915329,0.27734729647636414,0.006774032022804022,0.04492908716201782,-0.0026974952779710293,0.0013661682605743408,0.9919069409370422,0.7580980658531189,0,9.999999974752427e-07,-0.35688889026641846,2.4283409118652344,0.22623436152935028,0.059000685811042786,0.010814505629241467,0.16431039571762085,running,0,0
63,2.1333327293395996,0.258494108915329,0.2844476103782654,0.009865080006420612,0.12752261757850647,-0.0026256623677909374,-0.008419567719101906,0.9931963086128235,0.5055987238883972,0,9.999999974752427e-07,-0.355620414018631,2.1964526176452637,0.20297592878341675,0.05900150537490845,0.010814438574016094,0.16431057453155518,running,0,0
64,2.166666030883789,0.258494108915329,0.3288198709487915,0.01330854743719101,0.008659830316901207,-0.006056550424546003,-0.012891053222119808,0.9948370456695557,0.6686886548995972,0,9.999999974752427e-07,-0.35393813252449036,2.064336061477661,0.1902915984392166,0.05900278687477112,0.010814466513693333,0.16431069374084473,running,0,0
65,2.1999993324279785,0.258494108915329,0.2541671693325043,0.014078226871788502,0.02436283975839615,-0.0106234485283494,-0.01980871893465519,0.9939664006233215,0.8480287194252014,0,9.999999974752427e-07,-0.3595561385154724,1.980729341506958,0.18267206847667694,0.0590042844414711,0.010814457200467587,0.16431087255477905,running,0,0
66,2.233332633972168,0.258494108915329,0.3576596975326538,0.014554835855960846,-0.00742960162460804,-0.014475047588348389,-0.027161790058016777,0.9947003722190857,0.5129842758178711,0,9.999999974752427e-07,-0.3672717809677124,2.046367883682251,0.1909235715866089,0.0590059757232666,0.010814499109983444,0.16431093215942383,running,0,0
67,2.2666659355163574,0.258494108915329,0.3052034378051758,0.015282110311090946,0.03495907783508301,-0.021305592730641365,-0.0347471684217453,0.9935904145240784,0.7017553448677063,0,9.999999974752427e-07,-0.37541988492012024,1.996472716331482,0.18647602200508118,0.059007689356803894,0.010814540088176727,0.1643109768629074,running,0,0
68,2.299999237060547,0.258494108915329,0.4096769690513611,0.015748372301459312,0.005669815465807915,-0.024931374937295914,-0.04289551079273224,0.9933668375015259,0.3002413213253021,0,9.999999974752427e-07,-0.3834059238433838,1.9241474866867065,0.17937567830085754,0.059009552001953125,0.01081461738795042,0.16431105136871338,running,0,0
69,2.3333325386047363,0.258494108915329,0.2951689064502716,0.016959907487034798,0.06484875828027725,-0.02829638123512268,-0.045124419033527374,0.9928430914878845,0.5883235931396484,0,9.999999974752427e-07,-0.384597510099411,2.106365203857422,0.1991409957408905,0.05901145935058594,0.010814639739692211,0.16431112587451935,running,0,0
70,2.366665840148926,0.258494108915329,0.30051299929618835,0.017563462257385254,0.025430908426642418,-0.023010162636637688,-0.04031040519475937,0.9920868277549744,0.6674361824989319,0,9.999999974752427e-07,-0.38181746006011963,2.51718807220459,0.24042333662509918,0.05901335924863815,0.010814615525305271,0.16431115567684174,running,0,0
71,2.3999991416931152,0.258494108915329,0.2634616196155548,0.017785804346203804,-0.007787778507918119,-0.01780254952609539,-0.0328943245112896,0.9896073341369629,0.8017004132270813,0,9.999999974752427e-07,-0.37839314341545105,2.6396172046661377,0.2512551248073578,0.05901508033275604,0.010814636014401913,0.1643112301826477,running,0,0
72,2.4333324432373047,0.258494108915329,0.25920575857162476,0.017487524077296257,-0.0009135545114986598,-0.014012490399181843,-0.026971686631441116,0.988986074924469,0.8499442338943481,0,9.999999974752427e-07,-0.3755932152271271,2.47519588470459,0.2315833866596222,0.05901666730642319,0.01081466767936945,0.1643112599849701,running,0,0
73,2.466665744781494,0.258494108915329,0.32651904225349426,0.017214074730873108,0.000798352062702179,-0.010564926080405712,-0.020978262647986412,0.9897515177726746,0.6755483150482178,0,9.999999974752427e-07,-0.3732278645038605,2.6862025260925293,0.25165969133377075,0.05901817977428436,0.010814715176820755,0.16431134939193726,running,0,0
74,2.4999990463256836,0.258494108915329,0.23225091397762299,0.017010726034641266,-0.002406179206445813,-0.008108241483569145,-0.017077559605240822,0.9889801740646362,0.8722895383834839,0,9.999999974752427e-07,-0.3713221848011017,2.6530838012695312,0.24550844728946686,0.0590195432305336,0.010814739391207695,0.16431137919425964,running,0,0
75,2.533332347869873,0.258494108915329,0.13447724282741547,0.016737431287765503,-0.016550825908780098,-0.007047630380839109,-0.015493263490498066,0.988673985004425,0.480925977230072,0,9.999999974752427e-07,-0.3693274259567261,2.6282191276550293,0.24219536781311035,0.059020884335041046,0.010814662091434002,0.16431139409542084,running,0,0
76,2.5666656494140625,0.258494108915329,0.17354735732078552,0.015816468745470047,0.028781235218048096,-0.004385543987154961,-0.008576926775276661,0.9864588379859924,0.696016788482666,0,9.999999974752427e-07,-0.3670649826526642,2.50490140914917,0.22787098586559296,0.059022001922130585,0.010814754292368889,0.1643114686012268,running,0,0
77,2.599998950958252,0.258494108915329,0.3525783121585846,0.016205575317144394,0.012246943078935146,-0.006759808398783207,-0.004292581230401993,0.9894195795059204,0.4509018659591675,0,9.999999974752427e-07,-0.3644713759422302,2.484994649887085,0.22456127405166626,0.05902295559644699,0.010814661160111427,0.164311483502388,running,0,0
78,2.6333322525024414,0.258494108915329,0.24207153916358948,0.016901643946766853,0.017313601449131966,-0.01133325882256031,0.0010215762304142118,0.9916052222251892,0.7604843974113464,0,9.999999974752427e-07,-0.3647928237915039,1.905983567237854,0.15620069205760956,0.059023767709732056,0.010814690962433815,0.164311483502388,running,0,0
79,2.666665554046631,0.258494108915329,0.3170800805091858,0.016221696510910988,-0.03859240934252739,-0.01098391879349947,0.005404820665717125,0.9918870329856873,0.6808176636695862,0,9.999999974752427e-07,-0.36076658964157104,2.30517315864563,0.20125505328178406,0.05902445316314697,0.010814724490046501,0.164311483502388,running,0,0
80,2.6999988555908203,0.258494108915329,0.32737407088279724,0.013453680090606213,-0.12026719748973846,-0.009210128337144852,0.011120755225419998,0.9931002855300903,0.40720510482788086,0,9.999999974752427e-07,-0.36204811930656433,2.253169059753418,0.19320137798786163,0.0590251088142395,0.010814741253852844,0.164311483502388,running,0,0
81,2.7333321571350098,0.258494108915329,0.3517073094844818,0.010073700919747353,-0.10019970685243607,-0.008718281053006649,0.01758318953216076,0.990808367729187,0.44574490189552307,0,9.999999974752427e-07,-0.3698081076145172,2.6058688163757324,0.23142504692077637,0.059025608003139496,0.010814759880304337,0.16431140899658203,running,0,0
82,2.766665458679199,0.258494108915329,0.22589167952537537,0.007610854227095842,-0.05412588268518448,-0.01199527271091938,0.026218747720122337,0.9900807738304138,0.7154449820518494,0,9.999999974752427e-07,-0.37916603684425354,2.277127504348755,0.19104279577732086,0.059026069939136505,0.010814784094691277,0.16431134939193726,running,0,0
83,2.7999987602233887,0.258494108915329,0.37628018856048584,0.006745791062712669,-0.04117205739021301,-0.013892587274312973,0.032353032380342484,0.9894397258758545,0.4374626874923706,0,9.999999974752427e-07,-0.3812998831272125,2.4119293689727783,0.20621782541275024,0.05902648717164993,0.01081475242972374,0.16431109607219696,running,0,0
84,2.833332061767578,0.258494108915329,0.2815082371234894,0.006325658410787582,-0.0007477034232579172,-0.018110748380422592,0.04068008065223694,0.9884103536605835,0.8162268996238708,0,9.999999974752427e-07,-0.3785003423690796,2.428684711456299,0.20730556547641754,0.05902683734893799,0.010814719833433628,0.1643109917640686,running,0,0
85,2.8666653633117676,0.258494108915329,0.37611058354377747,0.007422726601362228,0.08059393614530563,-0.020801382139325142,0.04446924477815628,0.9867362380027771,0.23997259140014648,0,9.999999974752427e-07,-0.3726724684238434,2.735316753387451,0.2416197657585144,0.05902719497680664,0.010814744979143143,0.16431103646755219,running,0,0
86,2.899998664855957,0.258494108915329,0.35384854674339294,0.011542956344783306,0.10234541445970535,-0.013180727139115334,0.03524232283234596,0.9853172302246094,0.3120615780353546,0,9.999999974752427e-07,-0.36795687675476074,2.881988048553467,0.25713881850242615,0.059027425944805145,0.010814715176820755,0.16431108117103577,running,0,0
87,2.9333319664001465,0.24017518758773804,0.3431485593318939,0.014258415438234806,0.09744196385145187,-0.007549079600721598,0.02151833288371563,0.9827913641929626,0.4331578314304352,0,9.999999974752427e-07,-0.363923579454422,2.8404061794281006,0.2513432800769806,0.05902758985757828,0.010814717970788479,0.16431114077568054,running,0,0
88,2.966665267944336,0.24017518758773804,0.28829675912857056,0.017572704702615738,0.06546729803085327,-0.001125053153373301,0.014769175089895725,0.9819784164428711,0.6873284578323364,0,9.999999974752427e-07,-0.36111167073249817,2.8975064754486084,0.2608778774738312,0.05902763456106186,0.010814670473337173,0.16431117057800293,running,0,0
89,2.9999985694885254,0.24017518758773804,0.31473952531814575,0.0168918389827013,-0.05702914297580719,0.003276633331552148,0.009526056237518787,0.9828404188156128,0.5624566078186035,0,9.999999974752427e-07,-0.35902726650238037,2.847454071044922,0.25516727566719055,0.05902766436338425,0.010814746841788292,0.16431114077568054,running,0,0
90,3.033331871032715,0.24017518758773804,0.23561595380306244,0.015385954640805721,-0.005813300143927336,0.0041381847113370895,0.005666716024279594,0.9808670282363892,0.891495943069458,0,9.999999974752427e-07,-0.3570578098297119,2.881481409072876,0.2608778774738312,0.05902765691280365,0.01081477664411068,0.16431115567684174,running,0,0
91,3.0666651725769043,0.24017518758773804,0.2896241247653961,0.015352752059698105,-5.766504182247445e-05,-0.00033461107523180544,0.0009405639721080661,0.9807505011558533,0.8474041223526001,0,9.999999974752427e-07,-0.35553231835365295,2.692220449447632,0.24230214953422546,0.05902760475873947,0.010814766399562359,0.16431117057800293,running,0,0
92,3.0999984741210938,0.24017518758773804,0.21811258792877197,0.015969455242156982,0.03782960772514343,-0.00448617385700345,-0.007295739836990833,0.9789347648620605,0.8313237428665161,0,9.999999974752427e-07,-0.3536306917667389,2.777406692504883,0.25391116738319397,0.05902756005525589,0.010814804583787918,0.16431120038032532,running,0,0
93,3.133331775665283,0.24017518758773804,0.30862921476364136,0.016749363392591476,0.018661966547369957,-0.008389626629650593,-0.015145287849009037,0.9811079502105713,0.5728144645690918,0,9.999999974752427e-07,-0.3527820110321045,2.488173246383667,0.22414615750312805,0.059027545154094696,0.01081476453691721,0.1643112748861313,running,0,0
94,3.1666650772094727,0.24017518758773804,0.23807422816753387,0.017582986503839493,0.027548251673579216,-0.013689604587852955,-0.023285269737243652,0.9807514548301697,0.7866892218589783,0,9.999999974752427e-07,-0.3523692190647125,2.611762523651123,0.2396751493215561,0.05902748554944992,0.010814741253852844,0.1643112450838089,running,0,0
95,3.199998378753662,0.24017518758773804,0.31779083609580994,0.01852923259139061,-0.0021309154108166695,-0.017193643376231194,-0.030851971358060837,0.9821133613586426,0.5638126730918884,0,9.999999974752427e-07,-0.35064300894737244,2.4135613441467285,0.21973371505737305,0.05902745574712753,0.010814727284014225,0.1643112748861313,running,0,0
96,3.2333316802978516,0.24017518758773804,0.22511012852191925,0.01905088871717453,0.011651515029370785,-0.022542599588632584,-0.037484101951122284,0.9815499782562256,0.7528352737426758,0,9.999999974752427e-07,-0.35283687710762024,2.525862455368042,0.23351266980171204,0.05902738869190216,0.010814725421369076,0.16431133449077606,running,0,0
97,3.266664981842041,0.24017518758773804,0.32919958233833313,0.019021110609173775,0.005713771563023329,-0.024737976491451263,-0.04315933585166931,0.9817171692848206,0.5109480023384094,0,9.999999974752427e-07,-0.35133856534957886,2.4162356853485107,0.2229524850845337,0.05902734398841858,0.010814724490046501,0.16431142389774323,running,0,0
98,3.2999982833862305,0.24017518758773804,0.2581990361213684,0.019758298993110657,0.02612580917775631,-0.030189132317900658,-0.04901579022407532,0.9799728393554688,0.7280334830284119,0,9.999999974752427e-07,-0.355886310338974,2.6643593311309814,0.25062069296836853,0.05902727693319321,0.01081469189375639,0.164311483502388,running,0,0
99,3.33333158493042,0.24017518758773804,0.17521212995052338,0.021389609202742577,0.06666311621665955,-0.025230882689356804,-0.04354483634233475,0.981016993522644,0.49789586663246155,0,9.999999974752427e-07,-0.35921406745910645,2.5442121028900146,0.23863951861858368,0.05902714282274246,0.010814759880304337,0.16431163251399994,running,0,0
100,3.3666648864746094,0.24017518758773804,0.25859105587005615,0.023350859060883522,0.04637523740530014,-0.020309511572122574,-0.03706952556967735,0.9825288653373718,0.5894985795021057,0,9.999999974752427e-07,-0.3614027500152588,2.5426077842712402,0.23574386537075043,0.059027060866355896,0.010814786888659,0.1643117219209671,running,0,0
101,3.399998188018799,0.24017518758773804,0.22091291844844818,0.02497052401304245,0.05216711387038231,-0.015887916088104248,-0.029834019020199776,0.9820684790611267,0.6967598795890808,0,9.999999974752427e-07,-0.36223289370536804,2.7299957275390625,0.2531059682369232,0.05902698636054993,0.010814771056175232,0.16431179642677307,running,0,0
102,3.4333314895629883,0.24017518758773804,0.2929411828517914,0.025024887174367905,-0.00918274000287056,-0.01225085649639368,-0.023426895961165428,0.982794463634491,0.687250018119812,0,9.999999974752427e-07,-0.36215779185295105,2.5623109340667725,0.23172123730182648,0.05902695655822754,0.010814727284014225,0.16431181132793427,running,0,0
103,3.4666647911071777,0.24017518758773804,0.26421380043029785,0.025766616687178612,0.049140218645334244,-0.006648807320743799,-0.018491076305508614,0.9834688901901245,0.6736634969711304,0,9.999999974752427e-07,-0.3615213930606842,2.7528975009918213,0.24946054816246033,0.05902706831693649,0.010814840905368328,0.1643117070198059,running,0,0
104,3.499998092651367,0.24017518758773804,0.30202409625053406,0.026652362197637558,0.03422153368592262,-0.002211163053289056,-0.013967488892376423,0.985482931137085,0.5725899338722229,0,9.999999974752427e-07,-0.36080217361450195,2.79886531829834,0.2511724829673767,0.05902721732854843,0.01081475242972374,0.1643117070198059,running,0,0
105,3.5333313941955566,0.24017518758773804,0.22327741980552673,0.027515657246112823,0.009741480462253094,0.0006213099113665521,-0.011404437944293022,0.9838600158691406,0.8547691702842712,0,9.999999974752427e-07,-0.35951298475265503,2.8109290599823,0.24893507361412048,0.059027306735515594,0.010814709588885307,0.16431166231632233,running,0,0
106,3.566664695739746,0.24017518758773804,0.21278944611549377,0.027680903673171997,0.0017606462351977825,-0.00011573889059945941,-0.008950665593147278,0.9803601503372192,0.8539798259735107,0,9.999999974752427e-07,-0.3576207756996155,2.5815224647521973,0.2213178426027298,0.059027329087257385,0.010814765468239784,0.16431167721748352,running,0,0
107,3.5999979972839355,0.24017518758773804,0.35961493849754333,0.027515914291143417,-0.012702091597020626,-0.0026315059512853622,-0.004353564232587814,0.9821896553039551,0.4039381444454193,0,9.999999974752427e-07,-0.35570693016052246,2.486898899078369,0.2084909826517105,0.05902735888957977,0.010814812034368515,0.1643117368221283,running,0,0
108,3.633331298828125,0.24017518758773804,0.2517755329608917,0.027883440256118774,0.04915477707982063,-0.005941331852227449,0.0015765913994982839,0.9833016991615295,0.7105624675750732,0,9.999999974752427e-07,-0.356546550989151,2.3767294883728027,0.19311222434043884,0.05902739614248276,0.010814709588885307,0.1643117517232895,running,0,0
109,3.6666646003723145,0.24017518758773804,0.34274089336395264,0.02805015631020069,-0.022835565730929375,-0.007944882847368717,0.006604432128369808,0.984142005443573,0.5040431022644043,0,9.999999974752427e-07,-0.3532644510269165,2.5126664638519287,0.20741310715675354,0.059027351438999176,0.010814719833433628,0.16431176662445068,running,0,0
110,3.699997901916504,0.24017518758773804,0.2223023623228073,0.027792852371931076,0.006384243257343769,-0.010040651075541973,0.013900146819651127,0.9844270944595337,0.7933509349822998,0,9.999999974752427e-07,-0.35874560475349426,2.5389115810394287,0.20815041661262512,0.059027306735515594,0.010814770124852657,0.16431154310703278,running,0,0
111,3.7333312034606934,0.24017518758773804,0.35118961334228516,0.027790239080786705,-0.03217501938343048,-0.01208797562867403,0.019715042784810066,0.9849511981010437,0.420085608959198,0,9.999999974752427e-07,-0.3654303252696991,2.5137643814086914,0.2023261934518814,0.059027299284935,0.01081479899585247,0.1643112599849701,running,0,0
112,3.766664505004883,0.24017518758773804,0.25338247418403625,0.02817450277507305,0.03109607845544815,-0.01500694639980793,0.027845362201333046,0.9842621684074402,0.733556866645813,0,9.999999974752427e-07,-0.3674701750278473,2.6187784671783447,0.21429167687892914,0.059027329087257385,0.010814815759658813,0.1643110066652298,running,0,0
113,3.7999978065490723,0.24017518758773804,0.3708477318286896,0.02804344892501831,-0.028106028214097023,-0.018369847908616066,0.03414224460721016,0.983886182308197,0.33492231369018555,0,9.999999974752427e-07,-0.3684884309768677,2.715762138366699,0.22682517766952515,0.05902741104364395,0.010814712382853031,0.1643107831478119,running,0,0
114,3.8333311080932617,0.24017518758773804,0.2726314067840576,0.028017506003379822,0.018084725365042686,-0.022790584713220596,0.0428609661757946,0.9829261898994446,0.6907851696014404,0,9.999999974752427e-07,-0.36780768632888794,2.7913296222686768,0.23659926652908325,0.05902741104364395,0.010814792476594448,0.16431067883968353,running,0,0
115,3.866664409637451,0.24017518758773804,0.31484439969062805,0.03048371896147728,0.08794255554676056,-0.020466217771172523,0.042349912226200104,0.9842002987861633,0.33441081643104553,0,9.999999974752427e-07,-0.3643133342266083,2.886640787124634,0.24844911694526672,0.05902743339538574,0.010814739391207695,0.1643107533454895,running,0,0
116,3.8999977111816406,0.24017518758773804,0.2868017852306366,0.03400339558720589,0.11776126176118851,-0.013315587304532528,0.03198157623410225,0.9825671315193176,0.501620352268219,0,9.999999974752427e-07,-0.3615686893463135,2.946845531463623,0.2575402855873108,0.059027478098869324,0.010814807377755642,0.16431109607219696,running,0,0
117,3.93333101272583,0.24017518758773804,0.310637891292572,0.03610183671116829,0.02710837684571743,-0.007981052622199059,0.025539357215166092,0.9833802580833435,0.5464202165603638,0,9.999999974752427e-07,-0.359441876411438,2.8626699447631836,0.24992160499095917,0.059027574956417084,0.01081489585340023,0.1643112152814865,running,0,0
118,3.9666643142700195,0.24017518758773804,0.2125098705291748,0.03671594336628914,0.0008333259029313922,-0.0032358267344534397,0.01861495152115822,0.9822310209274292,0.8395103812217712,0,9.999999974752427e-07,-0.35758766531944275,2.9129879474639893,0.2575402855873108,0.05902774631977081,0.0108147282153368,0.16431131958961487,running,0,0
119,3.999997615814209,0.24017518758773804,0.19638556241989136,0.03575771674513817,-0.037520576268434525,0.00023494433844462037,0.012778512202203274,0.9823219776153564,0.6778196692466736,0,9.999999974752427e-07,-0.3565426170825958,2.7426917552948,0.23904725909233093,0.05902788043022156,0.010814725421369076,0.16431133449077606,running,0,0
120,4.033330917358398,0.24017518758773804,0.1900646984577179,0.03478822484612465,-0.022921709343791008,0.00027538760332390666,0.009583666920661926,0.9825061559677124,0.629922091960907,0,9.999999974752427e-07,-0.35547563433647156,2.6936941146850586,0.23445281386375427,0.05902794003486633,0.010814725421369076,0.16431120038032532,running,0,0
121,4.066664218902588,0.24017518758773804,0.30692410469055176,0.03450585901737213,-0.0023154509253799915,-0.0032926369458436966,0.006562093738466501,0.9849066734313965,0.6219111084938049,0,9.999999974752427e-07,-0.3544025123119354,2.516746997833252,0.21657028794288635,0.05902789533138275,0.010814719833433628,0.16431108117103577,running,0,0
122,4.099997520446777,0.24017518758773804,0.2755741477012634,0.0345306470990181,-0.006753702647984028,-0.007016767747700214,0.002029394032433629,0.9842908978462219,0.8518123030662537,0,9.999999974752427e-07,-0.35247287154197693,2.5136477947235107,0.21863290667533875,0.05902784317731857,0.010814732871949673,0.16431084275245667,running,0,0
123,4.133330821990967,0.24017518758773804,0.2918269634246826,0.03619599714875221,0.07390981912612915,-0.009243486449122429,-0.0061753178015351295,0.9831701517105103,0.6565918922424316,0,9.999999974752427e-07,-0.3511883616447449,2.468616485595703,0.21566082537174225,0.059027791023254395,0.010814709588885307,0.16431060433387756,running,0,0
124,4.166664123535156,0.24017518758773804,0.35463786125183105,0.0383857786655426,0.0583430714905262,-0.011767295189201832,-0.014737623743712902,0.9861006140708923,0.22299765050411224,0,9.999999974752427e-07,-0.34956052899360657,2.277249813079834,0.19565193355083466,0.05902772396802902,0.010814795270562172,0.1643105000257492,running,0,0
125,4.199997425079346,0.24017518758773804,0.3180347979068756,0.04092501476407051,0.07188447564840317,-0.01737326942384243,-0.023047616705298424,0.9866448044776917,0.4319572150707245,0,9.999999974752427e-07,-0.3537488877773285,2.069380521774292,0.17319273948669434,0.05902766436338425,0.010814794339239597,0.1643105447292328,running,0,0
126,4.233330726623535,0.24017518758773804,0.31029272079467773,0.044170212000608444,0.10174976289272308,-0.01888374052941799,-0.03407569229602814,0.9860602617263794,0.37539148330688477,0,9.999999974752427e-07,-0.3625391125679016,2.3025381565093994,0.20208865404129028,0.05902760475873947,0.010814769193530083,0.16431058943271637,running,0,0
127,4.266664028167725,0.24017518758773804,0.28291693329811096,0.04711254686117172,0.09959215670824051,-0.025918450206518173,-0.04332377389073372,0.985502302646637,0.36812135577201843,0,9.999999974752427e-07,-0.36556464433670044,2.228609561920166,0.19503819942474365,0.059027597308158875,0.010814888402819633,0.16431067883968353,running,0,0
128,4.299997329711914,0.24017518758773804,0.2658936083316803,0.04908714443445206,0.07603172212839127,-0.0246623232960701,-0.04325773939490318,0.985956072807312,0.5539259314537048,0,9.999999974752427e-07,-0.3638223111629486,2.462059259414673,0.22234976291656494,0.05902767926454544,0.010814831592142582,0.1643107682466507,running,0,0
129,4.3333306312561035,0.24017518758773804,0.2907361090183258,0.05117027834057808,0.08067653328180313,-0.020804865285754204,-0.030948445200920105,0.9847331047058105,0.44801536202430725,0,9.999999974752427e-07,-0.3632279634475708,2.3245203495025635,0.20785672962665558,0.05902776122093201,0.010814772918820381,0.16431082785129547,running,0,0
130,4.366663932800293,0.24017518758773804,0.33220788836479187,0.051445282995700836,-0.028365937992930412,-0.01768672838807106,-0.023940522223711014,0.9854480028152466,0.40055519342422485,0,9.999999974752427e-07,-0.36297109723091125,2.4390270709991455,0.21887734532356262,0.059027910232543945,0.010814754292368889,0.16431087255477905,running,0,0
131,4.399997234344482,0.24017518758773804,0.27257397770881653,0.051259368658065796,0.017051389440894127,-0.014161906205117702,-0.019688596948981285,0.9853740334510803,0.6951097846031189,0,9.999999974752427e-07,-0.36318323016166687,2.6131956577301025,0.23700526356697083,0.059027962386608124,0.010814813897013664,0.16431082785129547,running,0,0
132,4.433330535888672,0.24017518758773804,0.3093835115432739,0.05175343155860901,0.028645725920796394,-0.010503361001610756,-0.016633732244372368,0.9863544702529907,0.5238015651702881,0,9.999999974752427e-07,-0.3626890182495117,2.7598352432250977,0.24994732439517975,0.05902795493602753,0.010814839042723179,0.16431081295013428,running,0,0
133,4.466663837432861,0.24017518758773804,0.25914621353149414,0.053269218653440475,0.06194615736603737,-0.00726442551240325,-0.014921932481229305,0.9860681891441345,0.6438632607460022,0,9.999999974752427e-07,-0.36177513003349304,2.7681751251220703,0.24750179052352905,0.05902791768312454,0.010814792476594448,0.16431087255477905,running,0,0
134,4.499997138977051,0.24017518758773804,0.2821650803089142,0.054505735635757446,0.039441727101802826,-0.005513176321983337,-0.014180202037096024,0.9870103001594543,0.5892254710197449,0,9.999999974752427e-07,-0.36076006293296814,2.7211856842041016,0.24146930873394012,0.05902785807847977,0.010814773850142956,0.16431094706058502,running,0,0
135,4.53333044052124,0.24017518758773804,0.19816459715366364,0.05537056550383568,0.006216256879270077,-0.006327309645712376,-0.015276453457772732,0.9851186871528625,0.738644540309906,0,9.999999974752427e-07,-0.35944777727127075,2.7716898918151855,0.246192067861557,0.0590277835726738,0.010814832523465157,0.16431108117103577,running,0,0
136,4.56666374206543,0.24017518758773804,0.1667453944683075,0.05534631013870239,-0.002468578517436981,-0.0040105064399540424,-0.00897770281881094,0.9818204045295715,0.5184584259986877,0,9.999999974752427e-07,-0.3576227128505707,2.5793259143829346,0.22303667664527893,0.059027738869190216,0.010814801789820194,0.16431140899658203,running,0,0
137,4.599997043609619,0.24017518758773804,0.3335020840167999,0.05581071600317955,0.0015686999540776014,-0.004619832616299391,-0.001705233589746058,0.9821723699569702,0.39662083983421326,0,9.999999974752427e-07,-0.3553027808666229,2.5265445709228516,0.21535533666610718,0.05902773141860962,0.010814711451530457,0.16431161761283875,running,0,0
138,4.633330345153809,0.24017518758773804,0.26855769753456116,0.05563180893659592,-0.0003118300810456276,-0.0071588302962481976,0.003383696312084794,0.9823999404907227,0.7789716124534607,0,9.999999974752427e-07,-0.35309505462646484,2.420295238494873,0.2008698582649231,0.059027738869190216,0.010814790613949299,0.1643117219209671,running,0,0
139,4.666663646697998,0.24017518758773804,0.349538117647171,0.05506351217627525,-0.0110975606366992,-0.009056856855750084,0.008453669026494026,0.983449399471283,0.41559889912605286,0,9.999999974752427e-07,-0.35079240798950195,2.3189966678619385,0.18620933592319489,0.059027738869190216,0.010814869776368141,0.16431179642677307,running,0,0
140,4.6999969482421875,0.24017518758773804,0.2370966374874115,0.05526219308376312,0.0259642843157053,-0.012020615860819817,0.01615772768855095,0.9833471179008484,0.7067150473594666,0,9.999999974752427e-07,-0.36260753870010376,2.5141777992248535,0.20768402516841888,0.059027738869190216,0.01081478875130415,0.16431181132793427,running,0,0
141,4.733330249786377,0.24017518758773804,0.3633827567100525,0.055559493601322174,-0.020127683877944946,-0.015184625051915646,0.022464895620942116,0.9834364056587219,0.3330649435520172,0,9.999999974752427e-07,-0.36956483125686646,2.502676486968994,0.20366697013378143,0.059027738869190216,0.010814792476594448,0.16431176662445068,running,0,0
142,4.766663551330566,0.24017518758773804,0.2506825923919678,0.05559065565466881,0.017650825902819633,-0.01987573318183422,0.03080718219280243,0.9829549193382263,0.676795482635498,0,9.999999974752427e-07,-0.37660884857177734,2.4469053745269775,0.1948164701461792,0.05902770161628723,0.010814771056175232,0.16431152820587158,running,0,0
143,4.799996852874756,0.24017518758773804,0.3868119418621063,0.05621347203850746,-0.012640922330319881,-0.02378092147409916,0.03817985579371452,0.9822677373886108,0.23354029655456543,0,9.999999974752427e-07,-0.3774479627609253,2.648711919784546,0.21875274181365967,0.059027738869190216,0.010814824141561985,0.16431128978729248,running,0,0
144,4.833330154418945,0.24017518758773804,0.23085826635360718,0.05592925474047661,-0.00980107020586729,-0.028910426422953606,0.04533526673913002,0.9822765588760376,0.46586498618125916,0,9.999999974752427e-07,-0.3777215778827667,2.6241064071655273,0.21661798655986786,0.059027738869190216,0.010814875364303589,0.16431120038032532,running,0,0
145,4.866663455963135,0.24017518758773804,0.26854977011680603,0.05710824579000473,0.008977530524134636,-0.021873459219932556,0.039278678596019745,0.9834640622138977,0.6607210636138916,0,9.999999974752427e-07,-0.3744664490222931,2.795708179473877,0.23782317340373993,0.059027768671512604,0.010814753361046314,0.16431112587451935,running,0,0
146,4.899996757507324,0.24017518758773804,0.3151891827583313,0.05703526735305786,-0.019818836823105812,-0.016575200483202934,0.02803734876215458,0.9825956225395203,0.48648232221603394,0,9.999999974752427e-07,-0.3689344525337219,2.8088643550872803,0.24163031578063965,0.05902779847383499,0.0108147282153368,0.16431118547916412,running,0,0
147,4.933330059051514,0.24017518758773804,0.2798525393009186,0.05741332843899727,0.038914430886507034,-0.010789728723466396,0.020558573305606842,0.9818512201309204,0.6501355767250061,0,9.999999974752427e-07,-0.36470338702201843,2.8350818157196045,0.24845057725906372,0.05902785807847977,0.010814829729497433,0.16431128978729248,running,0,0
148,4.966663360595703,0.24017518758773804,0.28813400864601135,0.05701008439064026,-0.027799831703305244,-0.006891173776239157,0.014720458537340164,0.9823734760284424,0.6164836287498474,0,9.999999974752427e-07,-0.36160963773727417,2.771449327468872,0.2447900027036667,0.05902799218893051,0.010814790613949299,0.16431139409542084,running,0,0
149,4.999996662139893,0.24017518758773804,0.20143534243106842,0.056355442851781845,-0.010169008746743202,-0.0033860907424241304,0.010332156904041767,0.981717586517334,0.7443670034408569,0,9.999999974752427e-07,-0.3593265116214752,2.7983105182647705,0.250262975692749,0.059028081595897675,0.010814739391207695,0.16431152820587158,running,0,0
150,5.033329963684082,0.24017518758773804,0.111752949655056,0.05653535947203636,0.013647804968059063,-0.0009659799397923052,0.007367431186139584,0.9811586737632751,0.4175037443637848,0,9.999999974752427e-07,-0.35765591263771057,2.705597400665283,0.2421596199274063,0.05902813374996185,0.010814735665917397,0.16431160271167755,running,0,0
151,5.0666632652282715,0.24017518758773804,0.22217115759849548,0.05718214437365532,0.01700587198138237,-0.000744906603358686,0.004178850445896387,0.9818544387817383,0.6507304310798645,0,9.999999974752427e-07,-0.35648152232170105,2.6283118724823,0.2356497049331665,0.05902813374996185,0.01081477664411068,0.16431155800819397,running,0,0
152,5.099996566772461,0.24017518758773804,0.26387330889701843,0.057502198964357376,0.0035461722873151302,-0.0032368525862693787,-6.366275920299813e-05,0.9823911786079407,0.7760173082351685,0,9.999999974752427e-07,-0.3552561402320862,2.6221354007720947,0.23689153790473938,0.05902808904647827,0.010814780369400978,0.16431137919425964,running,0,0
153,5.13332986831665,0.24017518758773804,0.33067789673805237,0.057758115231990814,-0.0036967534106224775,-0.005373311694711447,-0.006044535432010889,0.9839437007904053,0.4715496003627777,0,9.999999974752427e-07,-0.3540166914463043,2.3852429389953613,0.21228720247745514,0.05902805179357529,0.010814769193530083,0.16431111097335815,running,0,0
154,5.16666316986084,0.24017518758773804,0.27970319986343384,0.05857520177960396,0.036547813564538956,-0.010315720923244953,-0.012788910418748856,0.9841380715370178,0.6324250102043152,0,9.999999974752427e-07,-0.3535042405128479,2.2109673023223877,0.1943332701921463,0.05902799218893051,0.010814744047820568,0.16431082785129547,running,0,0
155,5.199996471405029,0.24017518758773804,0.3191225528717041,0.05962164327502251,0.017286738380789757,-0.012897597625851631,-0.02058098465204239,0.9850624799728394,0.4830763041973114,0,9.999999974752427e-07,-0.3596170246601105,2.10088849067688,0.18337903916835785,0.05902794003486633,0.010814755223691463,0.16431079804897308,running,0,0
156,5.233329772949219,0.24017518758773804,0.2717824876308441,0.060838330537080765,0.04921317100524902,-0.018522273749113083,-0.029167314991354942,0.9839380979537964,0.5895126461982727,0,9.999999974752427e-07,-0.36686256527900696,2.179332733154297,0.19363270699977875,0.05902788043022156,0.010814884677529335,0.16431085765361786,running,0,0
157,5.266663074493408,0.24017518758773804,0.30407577753067017,0.06285896897315979,0.08100765198469162,-0.019373392686247826,-0.03470364958047867,0.9846842885017395,0.3468018174171448,0,9.999999974752427e-07,-0.3688894510269165,2.179889440536499,0.19474424421787262,0.05902780592441559,0.0108147282153368,0.16431093215942383,running,0,0
158,5.299996376037598,0.24017518758773804,0.22721260786056519,0.06595265865325928,0.08361232280731201,-0.021344447508454323,-0.03719070181250572,0.9833075404167175,0.5287186503410339,0,9.999999974752427e-07,-0.36746877431869507,2.3758978843688965,0.21716754138469696,0.059027768671512604,0.01081477478146553,0.164311021566391,running,0,0
159,5.333329677581787,0.24017518758773804,0.23553603887557983,0.06769613921642303,0.04573309049010277,-0.01822740025818348,-0.035203978419303894,0.9834358096122742,0.571197509765625,0,9.999999974752427e-07,-0.3667150139808655,2.3788130283355713,0.2179594337940216,0.05902770906686783,0.010814815759658813,0.16431109607219696,running,0,0
160,5.366662979125977,0.24017518758773804,0.2425001710653305,0.06841118633747101,-0.018740693107247353,-0.016597358509898186,-0.027744358405470848,0.9822024703025818,0.7090492248535156,0,9.999999974752427e-07,-0.3660952150821686,2.5481176376342773,0.23422306776046753,0.059027619659900665,0.010814758948981762,0.16431117057800293,running,0,0
161,5.399996280670166,0.24017518758773804,0.2912447452545166,0.0666457936167717,-0.0596349760890007,-0.015487744472920895,-0.02196853794157505,0.9823868870735168,0.5014013051986694,0,9.999999974752427e-07,-0.3660377562046051,2.5887670516967773,0.23739156126976013,0.0590275302529335,0.010814778506755829,0.1643112450838089,running,0,0
162,5.4333295822143555,0.24017518758773804,0.2759668231010437,0.06636882573366165,0.02472185343503952,-0.011384112760424614,-0.017893053591251373,0.9826270937919617,0.6188045740127563,0,9.999999974752427e-07,-0.3654420077800751,2.6922824382781982,0.2456984519958496,0.05902726948261261,0.010814725421369076,0.16431133449077606,running,0,0
163,5.466662883758545,0.24017518758773804,0.30625230073928833,0.06859874725341797,0.08027700334787369,-0.006381583400070667,-0.015420295298099518,0.9837443828582764,0.3859562873840332,0,9.999999974752427e-07,-0.36444705724716187,2.7099549770355225,0.24447490274906158,0.05902707576751709,0.010814812034368515,0.16431133449077606,running,0,0
164,5.499996185302734,0.24017518758773804,0.2298119068145752,0.07088421285152435,0.05416648089885712,-0.004935794975608587,-0.0136135034263134,0.9832344651222229,0.6453008055686951,0,9.999999974752427e-07,-0.3633544445037842,2.7545371055603027,0.24606700241565704,0.05902688950300217,0.010814853943884373,0.16431131958961487,running,0,0
165,5.533329486846924,0.24017518758773804,0.13954214751720428,0.07163144648075104,-0.0059978533536195755,-0.005824556574225426,-0.012578915804624557,0.9819602966308594,0.510167121887207,0,9.999999974752427e-07,-0.3617359399795532,2.6305530071258545,0.23149164021015167,0.059026725590229034,0.01081475242972374,0.16431128978729248,running,0,0
166,5.566662788391113,0.24017518758773804,0.2196139544248581,0.07132957130670547,0.0068709454499185085,-0.004757252521812916,-0.007631793152540922,0.980923593044281,0.6862300634384155,0,9.999999974752427e-07,-0.36007362604141235,2.5391645431518555,0.22017991542816162,0.05902665853500366,0.010814795270562172,0.16431115567684174,running,0,0
167,5.599996089935303,0.24017518758773804,0.3544004261493683,0.07110374420881271,0.0009657834307290614,-0.00684918649494648,-0.003065172117203474,0.9832995533943176,0.33118125796318054,0,9.999999974752427e-07,-0.3580489456653595,2.340137243270874,0.19565950334072113,0.05902662128210068,0.010814806446433067,0.16431111097335815,running,0,0
168,5.633329391479492,0.24017518758773804,0.24007201194763184,0.07163910567760468,0.02704257145524025,-0.01134501677006483,0.0031402488239109516,0.9849193692207336,0.6160116195678711,0,9.999999974752427e-07,-0.35872429609298706,2.02660870552063,0.15493708848953247,0.05902658402919769,0.010814737528562546,0.16431105136871338,running,0,0
169,5.666662693023682,0.24017518758773804,0.27802473306655884,0.0711507648229599,-0.04048178717494011,-0.012006882578134537,0.00943638477474451,0.9847654700279236,0.6059345602989197,0,9.999999974752427e-07,-0.35521456599235535,2.448573112487793,0.20543204247951508,0.059026554226875305,0.010814747773110867,0.164311021566391,running,0,0
170,5.699995994567871,0.24017518758773804,0.3034476935863495,0.06830307096242905,-0.1214279755949974,-0.00943764764815569,0.016065195202827454,0.9847239255905151,0.3315788805484772,0,9.999999974752427e-07,-0.3670138716697693,2.6301984786987305,0.22503124177455902,0.05902652442455292,0.010814815759658813,0.16431093215942383,running,0,0
171,5.7333292961120605,0.24017518758773804,0.3176426589488983,0.06484472751617432,-0.09832797944545746,-0.010202636942267418,0.02292529121041298,0.9829077124595642,0.4002944529056549,0,9.999999974752427e-07,-0.37348467111587524,2.5730013847351074,0.2162744700908661,0.059026554226875305,0.010814731009304523,0.16431091725826263,running,0,0
172,5.76666259765625,0.24017518758773804,0.290968120098114,0.06476344913244247,0.03558144345879555,-0.015588834881782532,0.029482683166861534,0.9809159636497498,0.6109827756881714,0,9.999999974752427e-07,-0.37494853138923645,2.543714761734009,0.21044489741325378,0.0590265616774559,0.010814772918820381,0.16431094706058502,running,0,0
173,5.7999958992004395,0.24017518758773804,0.41549503803253174,0.06529335677623749,-0.009532855823636055,-0.020136041566729546,0.03569779172539711,0.9803051352500916,0.12652458250522614,0,9.999999974752427e-07,-0.37260618805885315,2.7107696533203125,0.22798055410385132,0.059026531875133514,0.01081478875130415,0.16431105136871338,running,0,0
174,5.833329200744629,0.24017518758773804,0.24258951842784882,0.06480628997087479,-0.06581081449985504,-0.025836344808340073,0.04229395091533661,0.9804661273956299,0.34137964248657227,0,9.999999974752427e-07,-0.37447357177734375,2.6271817684173584,0.21522709727287292,0.05902654677629471,0.010814746841788292,0.16431112587451935,running,0,0
175,5.866662502288818,0.059930555522441864,0.25506916642189026,0.06492488086223602,-0.01767587848007679,-0.019105523824691772,0.03629676625132561,0.9809313416481018,0.1195092424750328,0,9.999999974752427e-07,-0.37223732471466064,2.8321921825408936,0.2406431883573532,0.059026554226875305,0.010814796201884747,0.16431117057800293,running,0,0
