t,stage,root_x,root_y,root_z,roll,pitch,yaw,vx,vy,vz,LF_phase,LF_q_sh_target,LF_q_kn_target,LF_sh_scalar,LF_kn_scalar,LF_phase_name,LF_track_body_name,LF_foot_x_w,LF_foot_y_w,LF_foot_z_w,LF_foot_x_b,LF_foot_y_b,LF_foot_z_b,RF_phase,RF_q_sh_target,RF_q_kn_target,RF_sh_scalar,RF_kn_scalar,RF_phase_name,RF_track_body_name,RF_foot_x_w,RF_foot_y_w,RF_foot_z_w,RF_foot_x_b,RF_foot_y_b,RF_foot_z_b,LB_phase,LB_q_sh_target,LB_q_kn_target,LB_sh_scalar,LB_kn_scalar,LB_phase_name,LB_track_body_name,LB_foot_x_w,LB_foot_y_w,LB_foot_z_w,LB_foot_x_b,LB_foot_y_b,LB_foot_z_b,RB_phase,RB_q_sh_target,RB_q_kn_target,RB_sh_scalar,RB_kn_scalar,RB_phase_name,RB_track_body_name,RB_foot_x_w,RB_foot_y_w,RB_foot_z_w,RB_foot_x_b,RB_foot_y_b,RB_foot_z_b
0.008333333333333333,warmup_qsupport,-1.956889173015952e-05,-0.002062097890302539,0.996931254863739,-0.009687485871899057,-0.00020406143817202046,-8.154459965316216e-05,-0.00013872841373085976,0.043234869837760925,-0.27069705724716187,0.0,0.7999999523162842,0.29999998211860657,0.0,0.0,warmup,/World/bittle/left_front_knee_link/toe_proxy,0.14924927132594323,0.4938132366923357,1.0441084371660951,0.14923802616236245,0.49540750506266856,0.05194834484974006,0.5,-0.7999999523162842,-0.29999998211860657,0.0,0.0,warmup,/World/bittle/right_front_knee_link/toe_proxy,-0.10375929620763458,0.5513480633346343,1.0364481869718785,-0.10377678746789273,0.5529927079242982,0.04489724140123835,0.5,0.7999999523162842,0.29999998211860657,0.0,0.0,warmup,/World/bittle/left_back_knee_link/toe_proxy,0.14924927132594323,-0.547996739408586,1.0441084371660951,0.1493229801379153,-0.5463535714703771,0.04185596598228217,0.0,-0.7999999523162842,-0.29999998211860657,0.0,0.0,warmup,/World/bittle/right_back_knee_link/toe_proxy,-0.10375929620763458,-0.490611937657187,1.0364481869718785,-0.10369182125862043,-0.48891838645790964,0.03480340919001025
0.016666666666666666,warmup_qsupport,-2.0831968868151307e-05,-0.0017105643637478352,0.9939979910850525,-0.010150924856797135,-0.00021757644668328309,-8.632872377376147e-05,-0.0001521959202364087,0.040925804525613785,-0.3514202833175659,0.0,0.7999999523162842,0.29999998211860657,0.0,0.0,warmup,/World/bittle/left_front_knee_link/toe_proxy,0.14924927132594323,0.4938132366923357,1.0441084371660951,0.14923824561766316,0.49500289767547023,0.05510547300679742,0.5,-0.7999999523162842,-0.29999998211860657,0.0,0.0,warmup,/World/bittle/right_front_knee_link/toe_proxy,-0.10375929620763458,0.5513480633346343,1.0364481869718785,-0.10377698501733228,0.5525901258925958,0.04808446345543021,0.5,0.7999999523162842,0.29999998211860657,0.0,0.0,warmup,/World/bittle/left_back_knee_link/toe_proxy,0.14924927132594323,-0.547996739408586,1.0441084371660951,0.14932818374107423,-0.5467535501263355,0.04453030031131841,0.0,-0.7999999523162842,-0.29999998211860657,0.0,0.0,warmup,/World/bittle/right_back_knee_link/toe_proxy,-0.10375929620763458,-0.490611937657187,1.0364481869718785,-0.1036870339424642,-0.489316339091816,0.03750776789189821
0.025,warmup_qsupport,-2.219993621110916e-05,-0.0013768593780696392,0.9903913140296936,-0.010674282746935763,-0.00023218959359608369,-9.156587246937787e-05,-0.0001627148740226403,0.038834843784570694,-0.432235985994339,0.0,0.7999999523162842,0.29999998211860657,0.0,0.0,warmup,/World/bittle/left_front_knee_link/toe_proxy,0.14924927132594323,0.4938132366923357,1.0441084371660951,0.14923861588744006,0.49460260338246537,0.0589652661802655,0.5,-0.7999999523162842,-0.29999998211860657,0.0,0.0,warmup,/World/bittle/right_front_knee_link/toe_proxy,-0.10375929620763458,0.5513480633346343,1.0364481869718785,-0.10377702321592847,0.5521921328780995,0.05197807949568482,0.5,0.7999999523162842,0.29999998211860657,0.0,0.0,warmup,/World/bittle/left_back_knee_link/toe_proxy,0.14924927132594323,-0.547996739408586,1.0441084371660951,0.14933401012414427,-0.5471481508198528,0.04784488100411837,0.0,-0.7999999523162842,-0.29999998211860657,0.0,0.0,warmup,/World/bittle/right_back_knee_link/toe_proxy,-0.10375929620763458,-0.490611937657187,1.0364481869718785,-0.10368161524206461,-0.4897086376869233,0.040856092938661055
0.03333333333333333,warmup_qsupport,-2.367765409871936e-05,-0.001059478148818016,0.9861108064651489,-0.01125156101501979,-0.00024778457879932024,-9.720012782729633e-05,-0.00017233300604857504,0.036926623433828354,-0.5131261348724365,0.0,0.7999999523162842,0.29999998211860657,0.0,0.0,warmup,/World/bittle/left_front_knee_link/toe_proxy,0.14924927132594323,0.4938132366923357,1.0441084371660951,0.1492392065670108,0.49420374127612615,0.0635251183193465,0.5,-0.7999999523162842,-0.29999998211860657,0.0,0.0,warmup,/World/bittle/right_front_knee_link/toe_proxy,-0.10375929620763458,0.5513480633346343,1.0364481869718785,-0.10377683171861282,0.5517958150131028,0.05657510885647473,0.5,0.7999999523162842,0.29999998211860657,0.0,0.0,warmup,/World/bittle/left_back_knee_link/toe_proxy,0.14924927132594323,-0.547996739408586,1.0441084371660951,0.14934047062659148,-0.5475402406326082,0.051803352100261914,0.0,-0.7999999523162842,-0.29999998211860657,0.0,0.0,warmup,/World/bittle/right_back_knee_link/toe_proxy,-0.10375929620763458,-0.490611937657187,1.0364481869718785,-0.10367555307659408,-0.49009818228309815,0.04485165465518752
0.041666666666666664,warmup_qsupport,-2.5211309548467398e-05,-0.0007568774744868279,0.9811555743217468,-0.011879011573489622,-0.0002643092561345474,-0.00010320338253586854,-0.0001811605179682374,0.03518495708703995,-0.5940854549407959,0.0,0.7999999523162842,0.29999998211860657,0.0,0.0,warmup,/World/bittle/left_front_knee_link/toe_proxy,0.14924927132594323,0.4938132366923357,1.0441084371660951,0.14924007611762521,0.49380329608257467,0.0687840303324724,0.5,-0.7999999523162842,-0.29999998211860657,0.0,0.0,warmup,/World/bittle/right_front_knee_link/toe_proxy,-0.10375929620763458,0.5513480633346343,1.0364481869718785,-0.10377644670111022,0.551398153934517,0.061874320761715826,0.5,0.7999999523162842,0.29999998211860657,0.0,0.0,warmup,/World/bittle/left_back_knee_link/toe_proxy,0.14924927132594323,-0.547996739408586,1.0441084371660951,0.14934759442717202,-0.547933181998297,0.05640862027384022,0.0,-0.7999999523162842,-0.29999998211860657,0.0,0.0,warmup,/World/bittle/right_back_knee_link/toe_proxy,-0.10375929620763458,-0.490611937657187,1.0364481869718785,-0.10366891290848779,-0.49048833845323925,0.04949712859349892
0.049999999999999996,warmup_qsupport,-2.6846624678000808e-05,-0.0004678415134549141,0.9755252599716187,-0.012551772907361028,-0.00028167824879762025,-0.00010953599741405013,-0.00018924518371932209,0.03359508141875267,-0.6751089692115784,0.0,0.7999999523162842,0.29999998211860657,0.0,0.0,warmup,/World/bittle/left_front_knee_link/toe_proxy,0.14924927132594323,0.4938132366923357,1.0441084371660951,0.14924129847494993,0.49339823390437465,0.07473989370281303,0.5,-0.7999999523162842,-0.29999998211860657,0.0,0.0,warmup,/World/bittle/right_front_knee_link/toe_proxy,-0.10375929620763458,0.5513480633346343,1.0364481869718785,-0.1037757351967118,0.5509960734005122,0.06787330712599202,0.5,0.7999999523162842,0.29999998211860657,0.0,0.0,warmup,/World/bittle/left_back_knee_link/toe_proxy,0.14924927132594323,-0.547996739408586,1.0441084371660951,0.14935541416504275,-0.5483297430374052,0.061663642766663015,0.0,-0.7999999523162842,-0.29999998211860657,0.0,0.0,warmup,/World/bittle/right_back_knee_link/toe_proxy,-0.10375929620763458,-0.490611937657187,1.0364481869718785,-0.1036616030734936,-0.4908819166239538,0.05479517315630894
0.05833333333333333,warmup_qsupport,-2.8527516406029463e-05,-0.000191153259947896,0.9692193865776062,-0.013266099649444297,-0.0002998261789625535,-0.00011616780357860913,-0.00019663982675410807,0.032143592834472656,-0.756192147731781,0.0,0.7999999523162842,0.29999998211860657,0.0,0.0,warmup,/World/bittle/left_front_knee_link/toe_proxy,0.14924927132594323,0.4938132366923357,1.0441084371660951,0.14924288042777611,0.4929854704680782,0.08139128201638247,0.5,-0.7999999523162842,-0.29999998211860657,0.0,0.0,warmup,/World/bittle/right_front_knee_link/toe_proxy,-0.10375929620763458,0.5513480633346343,1.0364481869718785,-0.10377469345840146,0.5505864663541981,0.0745704094088881,0.5,0.7999999523162842,0.29999998211860657,0.0,0.0,warmup,/World/bittle/left_back_knee_link/toe_proxy,0.14924927132594323,-0.547996739408586,1.0441084371660951,0.14936390519873402,-0.5487329862912554,0.06757089624833856,0.0,-0.7999999523162842,-0.29999998211860657,0.0,0.0,warmup,/World/bittle/right_back_knee_link/toe_proxy,-0.10375929620763458,-0.490611937657187,1.0364481869718785,-0.10365365125938229,-0.4912820021168763,0.060748033448856584
0.06666666666666667,warmup_qsupport,-3.0275608878582716e-05,7.422920316457748e-05,0.9622372984886169,-0.014017868508454429,-0.0003186819729108687,-0.00012306528525707014,-0.00020340809714980423,0.030818304046988487,-0.837330162525177,0.0,0.7999999523162842,0.29999998211860657,0.0,0.0,warmup,/World/bittle/left_front_knee_link/toe_proxy,0.14924927132594323,0.4938132366923357,1.0441084371660951,0.1492448729283508,0.49256192898851486,0.08873674468272003,0.5,-0.7999999523162842,-0.29999998211860657,0.0,0.0,warmup,/World/bittle/right_front_knee_link/toe_proxy,-0.10375929620763458,0.5513480633346343,1.0364481869718785,-0.10377321169545024,0.5501662178770923,0.08196392354353986,0.5,0.7999999523162842,0.29999998211860657,0.0,0.0,warmup,/World/bittle/left_back_knee_link/toe_proxy,0.14924927132594323,-0.547996739408586,1.0441084371660951,0.14937308356340928,-0.5491457238839423,0.07413322695945278,0.0,-0.7999999523162842,-0.29999998211860657,0.0,0.0,warmup,/World/bittle/right_back_knee_link/toe_proxy,-0.10375929620763458,-0.490611937657187,1.0364481869718785,-0.10364498259753674,-0.49169144515130164,0.06735830285408545
0.075,warmup_qsupport,-3.207294503226876e-05,0.00032927445136010647,0.9545788764953613,-0.014804464438650316,-0.0003382041084479885,-0.00013020789672864202,-0.00020959465473424643,0.029608003795146942,-0.9185190796852112,0.0,0.7999999523162842,0.29999998211860657,0.0,0.0,warmup,/World/bittle/left_front_knee_link/toe_proxy,0.14924927132594323,0.4938132366923357,1.0441084371660951,0.1492473744568018,0.4921247275925983,0.09677508056360803,0.5,-0.7999999523162842,-0.29999998211860657,0.0,0.0,warmup,/World/bittle/right_front_knee_link/toe_proxy,-0.10375929620763458,0.5513480633346343,1.0364481869718785,-0.1037712861843551,0.5497324499635587,0.09005248458498188,0.5,0.7999999523162842,0.29999998211860657,0.0,0.0,warmup,/World/bittle/left_back_knee_link/toe_proxy,0.14924927132594323,-0.547996739408586,1.0441084371660951,0.14938302633443945,-0.5495711864813239,0.08135215947006476,0.0,-0.7999999523162842,-0.29999998211860657,0.0,0.0,warmup,/World/bittle/right_back_knee_link/toe_proxy,-0.10375929620763458,-0.490611937657187,1.0364481869718785,-0.10363561477229315,-0.4921134725758654,0.07462734252782001
0.08333333333333333,warmup_qsupport,-3.393922816030681e-05,0.0005748998373746872,0.9462435245513916,-0.01562289205380826,-0.00035833934829851817,-0.00013757133603363762,-0.00021524356270674616,0.028502561151981354,-0.9997550845146179,0.0,0.7999999523162842,0.29999998211860657,0.0,0.0,warmup,/World/bittle/left_front_knee_link/toe_proxy,0.14924927132594323,0.4938132366923357,1.0441084371660951,0.14925043376938166,0.49167070791588247,0.10550533043439207,0.5,-0.7999999523162842,-0.29999998211860657,0.0,0.0,warmup,/World/bittle/right_front_knee_link/toe_proxy,-0.10375929620763458,0.5513480633346343,1.0364481869718785,-0.10376881051783643,0.5492819722845856,0.09883494922932339,0.5,0.7999999523162842,0.29999998211860657,0.0,0.0,warmup,/World/bittle/left_back_knee_link/toe_proxy,0.14924927132594323,-0.547996739408586,1.0441084371660951,0.14939375695003307,-0.550012265644905,0.08922985652768516,0.0,-0.7999999523162842,-0.29999998211860657,0.0,0.0,warmup,/World/bittle/right_back_knee_link/toe_proxy,-0.10375929620763458,-0.490611937657187,1.0364481869718785,-0.1036254666980617,-0.49255100787821715,0.08255713158791127
0.09166666666666666,warmup_qsupport,-3.5818578908219934e-05,0.0008119817357510328,0.9372308254241943,-0.01647014632687309,-0.0003790342938410883,-0.00014513173184903632,-0.00022040675685275346,0.027492692694067955,-1.0810346603393555,0.0,0.7999999523162842,0.29999998211860657,0.0,0.0,warmup,/World/bittle/left_front_knee_link/toe_proxy,0.14924927132594323,0.4938132366923357,1.0441084371660951,0.14925404185286562,0.49119678193076866,0.11492635427641579,0.5,-0.7999999523162842,-0.29999998211860657,0.0,0.0,warmup,/World/bittle/right_front_knee_link/toe_proxy,-0.10375929620763458,0.5513480633346343,1.0364481869718785,-0.10376576539129216,0.5488116717926808,0.10830999187183783,0.5,0.7999999523162842,0.29999998211860657,0.0,0.0,warmup,/World/bittle/left_back_knee_link/toe_proxy,0.14924927132594323,-0.547996739408586,1.0441084371660951,0.14940524152756274,-0.5504719102973096,0.09776831015728508,0.0,-0.7999999523162842,-0.29999998211860657,0.0,0.0,warmup,/World/bittle/right_back_knee_link/toe_proxy,-0.10375929620763458,-0.490611937657187,1.0364481869718785,-0.10361454394322442,-0.4930070249808424,0.09114947692428728
0.09999999999999999,warmup_qsupport,-3.778038080781698e-05,0.001041150651872158,0.9275405406951904,-0.017343239915285125,-0.00040023462236596905,-0.00015286545589451595,-0.00022513099247589707,0.02657000720500946,-1.1623539924621582,0.0,0.7999999523162842,0.29999998211860657,0.0,0.0,warmup,/World/bittle/left_front_knee_link/toe_proxy,0.14924927132594323,0.4938132366923357,1.0441084371660951,0.14925835012069805,0.49070021368513794,0.1250368661233371,0.5,-0.7999999523162842,-0.29999998211860657,0.0,0.0,warmup,/World/bittle/right_front_knee_link/toe_proxy,-0.10375929620763458,0.5513480633346343,1.0364481869718785,-0.10376203048622659,0.5483188015998549,0.11847613992181692,0.5,0.7999999523162842,0.29999998211860657,0.0,0.0,warmup,/World/bittle/left_back_knee_link/toe_proxy,0.14924927132594323,-0.547996739408586,1.0441084371660951,0.14941760686427444,-0.5509529694313461,0.10696934801984437,0.0,-0.7999999523162842,-0.29999998211860657,0.0,0.0,warmup,/World/bittle/right_back_knee_link/toe_proxy,-0.10375929620763458,-0.490611937657187,1.0364481869718785,-0.1036027508090288,-0.49348438382869875,0.10040602002193666
0.10833333333333332,warmup_qsupport,-3.977108281105757e-05,0.0012630859855562449,0.9171723127365112,-0.018240293290301957,-0.0004219082588121064,-0.00016075746960391026,-0.00022943496878724545,0.025726793333888054,-1.2437100410461426,0.0,0.7999999523162842,0.29999998211860657,0.0,0.0,warmup,/World/bittle/left_front_knee_link/toe_proxy,0.14924927132594323,0.4938132366923357,1.0441084371660951,0.14926340441986025,0.490178138555365,0.1358362561111332,0.5,-0.7999999523162842,-0.29999998211860657,0.0,0.0,warmup,/World/bittle/right_front_knee_link/toe_proxy,-0.10375929620763458,0.5513480633346343,1.0364481869718785,-0.10375762338041845,0.5478004988452596,0.1293326653305535,0.5,0.7999999523162842,0.29999998211860657,0.0,0.0,warmup,/World/bittle/left_back_knee_link/toe_proxy,0.14924927132594323,-0.547996739408586,1.0441084371660951,0.14943088313979888,-0.5514585386972226,0.11683431991149963,0.0,-0.7999999523162842,-0.29999998211860657,0.0,0.0,warmup,/World/bittle/right_back_knee_link/toe_proxy,-0.10375929620763458,-0.490611937657187,1.0364481869718785,-0.10359012054286029,-0.4939861783424858,0.11032799277451076
0.11666666666666665,warmup_qsupport,-4.175244248472154e-05,0.0014784876257181168,0.9061259627342224,-0.01915944308996591,-0.0004440229342998054,-0.00016879255367282386,-0.000233354396186769,0.02495609037578106,-1.3251005411148071,0.0,0.7999999523162842,0.29999998211860657,0.0,0.0,warmup,/World/bittle/left_front_knee_link/toe_proxy,0.14924927132594323,0.4938132366923357,1.0441084371660951,0.14926917724556757,0.48962735685386555,0.14732366654460557,0.5,-0.7999999523162842,-0.29999998211860657,0.0,0.0,warmup,/World/bittle/right_front_knee_link/toe_proxy,-0.10375929620763458,0.5513480633346343,1.0364481869718785,-0.10375248362019981,0.5472535316620367,0.1408785976674662,0.5,0.7999999523162842,0.29999998211860657,0.0,0.0,warmup,/World/bittle/left_back_knee_link/toe_proxy,0.14924927132594323,-0.547996739408586,1.0441084371660951,0.14944502699370546,-0.5519914302245754,0.12736431098922799,0.0,-0.7999999523162842,-0.29999998211860657,0.0,0.0,warmup,/World/bittle/right_back_knee_link/toe_proxy,-0.10375929620763458,-0.490611937657187,1.0364481869718785,-0.10357660854898004,-0.494515252775304,0.12091636788338246
0.12499999999999999,warmup_qsupport,-0.0002662478946149349,0.0016333810053765774,0.8948839902877808,-0.01938397619110207,-0.0007619518076940417,4.787931153477929e-05,-0.10231480747461319,-0.02085982821881771,-1.1561427116394043,0.0,0.7999999523162842,0.29999998211860657,0.0,0.0,warmup,/World/bittle/left_front_knee_link/toe_proxy,0.14924927132594323,0.4938132366923357,1.0441084371660951,0.1496527283610514,0.48919001534241857,0.15862210168712484,0.5,-0.7999999523162842,-0.29999998211860657,0.0,0.0,warmup,/World/bittle/right_front_knee_link/toe_proxy,-0.10375929620763458,0.5513480633346343,1.0364481869718785,-0.103358823189391,0.5468708795045297,0.1522714542025436,0.5,0.7999999523162842,0.29999998211860657,0.0,0.0,warmup,/World/bittle/left_back_knee_link/toe_proxy,0.14924927132594323,-0.547996739408586,1.0441084371660951,0.14960284723114445,-0.5524241424302865,0.1384289845513137,0.0,-0.7999999523162842,-0.29999998211860657,0.0,0.0,warmup,/World/bittle/right_back_knee_link/toe_proxy,-0.10375929620763458,-0.490611937657187,1.0364481869718785,-0.10340871150238437,-0.494893274960436,0.13207542917540413
0.13333333333333333,warmup_qsupport,-0.0016674540238454938,1.4225021004676819e-05,0.8885025382041931,-0.014191221002378473,-0.002899352690427404,0.0008210431877241901,-0.19993045926094055,-0.32026177644729614,-0.47578153014183044,0.0,0.7999999523162842,0.29999998211860657,0.0,0.0,warmup,/World/bittle/left_front_knee_link/toe_proxy,0.14924927132594323,0.4938132366923357,1.0441084371660951,0.15177261218611354,0.49142325761483974,0.16215648740495514,0.5,-0.7999999523162842,-0.29999998211860657,0.0,0.0,warmup,/World/bittle/right_front_knee_link/toe_proxy,-0.10375929620763458,0.5513480633346343,1.0364481869718785,-0.10120975740255543,0.5492582731879395,0.15604979996764154,0.5,0.7999999523162842,0.29999998211860657,0.0,0.0,warmup,/World/bittle/left_back_knee_link/toe_proxy,0.14924927132594323,-0.547996739408586,1.0441084371660951,0.15091724489366226,-0.5502814140295346,0.14737491278415493,0.0,-0.7999999523162842,-0.29999998211860657,0.0,0.0,warmup,/World/bittle/right_back_knee_link/toe_proxy,-0.10375929620763458,-0.490611937657187,1.0364481869718785,-0.10206524787138979,-0.49259640818306266,0.14126609673973384
0.14166666666666666,warmup_qsupport,-0.0033583794720470905,-0.0035500889644026756,0.8856777548789978,-0.0062792568180567885,-0.005268207994523718,0.001774332979518247,-0.182134747505188,-0.4854799509048462,-0.221150204539299,0.0,0.7999999523162842,0.29999998211860657,0.0,0.0,warmup,/World/bittle/left_front_knee_link/toe_proxy,0.14924927132594323,0.4938132366923357,1.0441084371660951,0.1543224169799739,0.49609225910722327,0.16073811676264996,0.5,-0.7999999523162842,-0.29999998211860657,0.0,0.0,warmup,/World/bittle/right_front_knee_link/toe_proxy,-0.10375929620763458,0.5513480633346343,1.0364481869718785,-0.09862052365079144,0.554114509372982,0.15477454484870523,0.5,0.7999999523162842,0.29999998211860657,0.0,0.0,warmup,/World/bittle/left_back_knee_link/toe_proxy,0.14924927132594323,-0.547996739408586,1.0441084371660951,0.15247392580274352,-0.5456956456987933,0.15420611578769808,0.0,-0.7999999523162842,-0.29999998211860657,0.0,0.0,warmup,/World/bittle/right_back_knee_link/toe_proxy,-0.10375929620763458,-0.490611937657187,1.0364481869718785,-0.10046928101829983,-0.48782341714557764,0.14824160323893887
0.15,warmup_qsupport,-0.004112238064408302,-0.00794531125575304,0.8849177956581116,-0.0018726820318051883,-0.005160546494458573,0.003014430861089272,-0.0324811227619648,-0.5387993454933167,0.029759634286165237,0.0,0.7999999523162842,0.29999998211860657,0.0,0.0,warmup,/World/bittle/left_front_knee_link/toe_proxy,0.14924927132594323,0.4938132366923357,1.0441084371660951,0.15569279353020266,0.5009965514262349,0.15932780303203217,0.5,-0.7999999523162842,-0.29999998211860657,0.0,0.0,warmup,/World/bittle/right_front_knee_link/toe_proxy,-0.10375929620763458,0.5513480633346343,1.0364481869718785,-0.09717739043791264,0.5593055999714562,0.15308159275499864,0.5,0.7999999523162842,0.29999998211860657,0.0,0.0,warmup,/World/bittle/left_back_knee_link/toe_proxy,0.14924927132594323,-0.547996739408586,1.0441084371660951,0.1525523759600392,-0.5408070438681363,0.1573930405976328,0.0,-0.7999999523162842,-0.29999998211860657,0.0,0.0,warmup,/World/bittle/right_back_knee_link/toe_proxy,-0.10375929620763458,-0.490611937657187,1.0364481869718785,-0.10031826024103041,-0.4826480192949524,0.15114655170690788
0.15833333333333333,warmup_qsupport,-0.0042316121980547905,-0.012235887348651886,0.884727418422699,-0.00011229131545299047,-0.003617433182026616,0.005275262705946771,-0.006425586529076099,-0.5046510696411133,-0.0013119172072038054,0.0,0.7999999523162842,0.29999998211860657,0.0,0.0,warmup,/World/bittle/left_front_knee_link/toe_proxy,0.14924927132594323,0.4938132366923357,1.0441084371660951,0.15672382001786594,0.5052146475973003,0.15887186909138543,0.5,-0.7999999523162842,-0.29999998211860657,0.0,0.0,warmup,/World/bittle/right_front_knee_link/toe_proxy,-0.10375929620763458,0.5513480633346343,1.0364481869718785,-0.09600379906320305,0.564084116974208,0.1521324076832384,0.5,0.7999999523162842,0.29999998211860657,0.0,0.0,warmup,/World/bittle/left_back_knee_link/toe_proxy,0.14924927132594323,-0.547996739408586,1.0441084371660951,0.1512280601526595,-0.536580930728946,0.15877476513546232,0.0,-0.7999999523162842,-0.29999998211860657,0.0,0.0,warmup,/World/bittle/right_back_knee_link/toe_proxy,-0.10375929620763458,-0.490611937657187,1.0364481869718785,-0.10150035034027265,-0.4778614841695998,0.15203528974394914
0.16666666666666666,warmup_qsupport,-0.004180926363915205,-0.016384635120630264,0.8844001293182373,0.001564262914648297,-0.002124616543095983,0.007317320022778477,0.01229215320199728,-0.4903658330440521,-0.002352091483771801,0.0,0.7999999523162842,0.29999998211860657,0.0,0.0,warmup,/World/bittle/left_front_knee_link/toe_proxy,0.14924927132594323,0.4938132366923357,1.0441084371660951,0.15749831901457875,0.5093102622096002,0.15857756142095508,0.5,-0.7999999523162842,-0.29999998211860657,0.0,0.0,warmup,/World/bittle/right_front_knee_link/toe_proxy,-0.10375929620763458,0.5513480633346343,1.0364481869718785,-0.09509821139664659,0.5686836672959616,0.15136108020017713,0.5,0.7999999523162842,0.29999998211860657,0.0,0.0,warmup,/World/bittle/left_back_knee_link/toe_proxy,0.14924927132594323,-0.547996739408586,1.0441084371660951,0.14987514725072584,-0.5324706395719124,0.16022337815716955,0.0,-0.7999999523162842,-0.29999998211860657,0.0,0.0,warmup,/World/bittle/right_back_knee_link/toe_proxy,-0.10375929620763458,-0.490611937657187,1.0364481869718785,-0.10272248092836356,-0.4732472551896299,0.1530071339407225
0.175,warmup_qsupport,-0.004050079733133316,-0.02031109482049942,0.8842127919197083,0.0026693719921604187,-0.0010537848674679014,0.008835653413638457,0.016146231442689896,-0.45799484848976135,0.014365080744028091,0.0,0.7999999523162842,0.29999998211860657,0.0,0.0,warmup,/World/bittle/left_front_knee_link/toe_proxy,0.14924927132594323,0.4938132366923357,1.0441084371660951,0.158004377784577,0.5131744556184231,0.15835998302050897,0.5,-0.7999999523162842,-0.29999998211860657,0.0,0.0,warmup,/World/bittle/right_front_knee_link/toe_proxy,-0.10375929620763458,0.5513480633346343,1.0364481869718785,-0.09449395637759747,0.5729225666761354,0.15080628904404736,0.5,0.7999999523162842,0.29999998211860657,0.0,0.0,warmup,/World/bittle/left_back_knee_link/toe_proxy,0.14924927132594323,-0.547996739408586,1.0441084371660951,0.14879943079464036,-0.5285913709492369,0.1611505495368196,0.0,-0.7999999523162842,-0.29999998211860657,0.0,0.0,warmup,/World/bittle/right_back_knee_link/toe_proxy,-0.10375929620763458,-0.490611937657187,1.0364481869718785,-0.10370022891748999,-0.4689932784247113,0.1535972574133319
0.18333333333333332,warmup_qsupport,-0.0038826102390885353,-0.024011531844735146,0.884085476398468,0.003459926624112459,-0.00032245832474704476,0.009910359830047361,0.021468626335263252,-0.43218666315078735,0.01636403612792492,0.0,0.7999999523162842,0.29999998211860657,0.0,0.0,warmup,/World/bittle/left_front_knee_link/toe_proxy,0.14924927132594323,0.4938132366923357,1.0441084371660951,0.15830770577845515,0.5168321918087488,0.1581846765109226,0.5,-0.7999999523162842,-0.29999998211860657,0.0,0.0,warmup,/World/bittle/right_front_knee_link/toe_proxy,-0.10375929620763458,0.5513480633346343,1.0364481869718785,-0.09412072228647965,0.5768449785664456,0.15039813725268136,0.5,0.7999999523162842,0.29999998211860657,0.0,0.0,warmup,/World/bittle/left_back_knee_link/toe_proxy,0.14924927132594323,-0.547996739408586,1.0441084371660951,0.1479831635840089,-0.524920416390075,0.1617924075965283,0.0,-0.7999999523162842,-0.29999998211860657,0.0,0.0,warmup,/World/bittle/right_back_knee_link/toe_proxy,-0.10375929620763458,-0.490611937657187,1.0364481869718785,-0.10444675125716325,-0.46505764626206586,0.15400638786629592
0.19166666666666665,warmup_qsupport,-0.003739182138815522,-0.027484532445669174,0.8839548826217651,0.004163933617642375,-3.447373107480086e-06,0.010577338603658918,0.013031363487243652,-0.4029679596424103,0.014962502755224705,0.0,0.7999999523162842,0.29999998211860657,0.0,0.0,warmup,/World/bittle/left_front_knee_link/toe_proxy,0.14924927132594323,0.4938132366923357,1.0441084371660951,0.1584942874900386,0.520312786500386,0.15798783594135504,0.5,-0.7999999523162842,-0.29999998211860657,0.0,0.0,warmup,/World/bittle/right_front_knee_link/toe_proxy,-0.10375929620763458,0.5513480633346343,1.0364481869718785,-0.09389159897321711,0.5804880869818385,0.1500778220185371,0.5,0.7999999523162842,0.29999998211860657,0.0,0.0,warmup,/World/bittle/left_back_knee_link/toe_proxy,0.14924927132594323,-0.547996739408586,1.0441084371660951,0.1474749160896118,-0.5214298787314577,0.162325646309402,0.0,-0.7999999523162842,-0.29999998211860657,0.0,0.0,warmup,/World/bittle/right_back_knee_link/toe_proxy,-0.10375929620763458,-0.490611937657187,1.0364481869718785,-0.10491255720812433,-0.4614045934478649,0.15441625704899092
0.19999999999999998,warmup_qsupport,-0.0037158834747970104,-0.030688324943184853,0.8838027715682983,0.0047648511657332575,-1.1986843812570573e-05,0.01083698023648832,-0.00204757833853364,-0.3680797517299652,0.010694758966565132,0.0,0.7999999523162842,0.29999998211860657,0.0,0.0,warmup,/World/bittle/left_front_knee_link/toe_proxy,0.14924927132594323,0.4938132366923357,1.0441084371660951,0.1586420125886145,0.5235710575174694,0.157810844250724,0.5,-0.7999999523162842,-0.29999998211860657,0.0,0.0,warmup,/World/bittle/right_front_knee_link/toe_proxy,-0.10375929620763458,0.5513480633346343,1.0364481869718785,-0.09372832588696266,0.5838071375049392,0.14986651333244566,0.5,0.7999999523162842,0.29999998211860657,0.0,0.0,warmup,/World/bittle/left_back_knee_link/toe_proxy,0.14924927132594323,-0.547996739408586,1.0441084371660951,0.14735215945152327,-0.5181660297755772,0.16277473878763446,0.0,-0.7999999523162842,-0.29999998211860657,0.0,0.0,warmup,/World/bittle/right_back_knee_link/toe_proxy,-0.10375929620763458,-0.490611937657187,1.0364481869718785,-0.10501980480900891,-0.45807996418272107,0.15483112269044003
0.20833333333333331,warmup_qsupport,-0.003795399097725749,-0.03359214961528778,0.8836290836334229,0.005358038463171935,-0.00010697738778308692,0.010917758041780773,-0.010585802607238293,-0.3308058977127075,0.010935934260487556,0.0,0.7999999523162842,0.29999998211860657,0.0,0.0,warmup,/World/bittle/left_front_knee_link/toe_proxy,0.14924927132594323,0.4938132366923357,1.0441084371660951,0.15881070821090595,0.5265553722970199,0.15764336140163238,0.5,-0.7999999523162842,-0.29999998211860657,0.0,0.0,warmup,/World/bittle/right_front_knee_link/toe_proxy,-0.10375929620763458,0.5513480633346343,1.0364481869718785,-0.09355549638287311,0.5868072452289539,0.149687163059459,0.5,0.7999999523162842,0.29999998211860657,0.0,0.0,warmup,/World/bittle/left_back_knee_link/toe_proxy,0.14924927132594323,-0.547996739408586,1.0441084371660951,0.14743670499312983,-0.5151777049886396,0.16322627668112394,0.0,-0.7999999523162842,-0.29999998211860657,0.0,0.0,warmup,/World/bittle/right_back_knee_link/toe_proxy,-0.10375929620763458,-0.490611937657187,1.0364481869718785,-0.10493113750355955,-0.45507584587386163,0.15527088230154923
0.21666666666666665,warmup_qsupport,-0.0038831925485283136,-0.036184899508953094,0.88351970911026,0.006033015465816326,-0.0001789453024878208,0.010999768564346559,-0.007417825981974602,-0.2932376563549042,0.018915826454758644,0.0,0.7999999523162842,0.29999998211860657,0.0,0.0,warmup,/World/bittle/left_front_knee_link/toe_proxy,0.14924927132594323,0.4938132366923357,1.0441084371660951,0.15898169444845572,0.5292408017408923,0.15737026970006882,0.5,-0.7999999523162842,-0.29999998211860657,0.0,0.0,warmup,/World/bittle/right_front_knee_link/toe_proxy,-0.10375929620763458,0.5513480633346343,1.0364481869718785,-0.0933801117291388,0.5895080959472659,0.14939144080766165,0.5,0.7999999523162842,0.29999998211860657,0.0,0.0,warmup,/World/bittle/left_back_knee_link/toe_proxy,0.14924927132594323,-0.547996739408586,1.0441084371660951,0.14752225709889022,-0.5124873222099481,0.1636571576098942,0.0,-0.7999999523162842,-0.29999998211860657,0.0,0.0,warmup,/World/bittle/right_back_knee_link/toe_proxy,-0.10375929620763458,-0.490611937657187,1.0364481869718785,-0.10484119928447845,-0.45237004110743007,0.15567923405501924
0.22499999999999998,warmup_qsupport,-0.003933093510568142,-0.03846680372953415,0.8834465742111206,0.0066839536341037785,-0.0001893050350846192,0.011104142828576899,-0.00373691669665277,-0.2564270496368408,0.02079152688384056,0.0,0.7999999523162842,0.29999998211860657,0.0,0.0,warmup,/World/bittle/left_front_knee_link/toe_proxy,0.14924927132594323,0.4938132366923357,1.0441084371660951,0.15911374959918828,0.5316081846312942,0.15708206256725826,0.5,-0.7999999523162842,-0.29999998211860657,0.0,0.0,warmup,/World/bittle/right_front_knee_link/toe_proxy,-0.10375929620763458,0.5513480633346343,1.0364481869718785,-0.09324184517082498,0.5918966302720963,0.14906644199865743,0.5,0.7999999523162842,0.29999998211860657,0.0,0.0,warmup,/World/bittle/left_back_knee_link/toe_proxy,0.14924927132594323,-0.547996739408586,1.0441084371660951,0.14754558076461757,-0.5101144497576565,0.1640471808645271,0.0,-0.7999999523162842,-0.29999998211860657,0.0,0.0,warmup,/World/bittle/right_back_knee_link/toe_proxy,-0.10375929620763458,-0.490611937657187,1.0364481869718785,-0.10481167986894772,-0.4499760164301909,0.1560325633014038
0.2333333333333333,warmup_qsupport,-0.0039543407037854195,-0.040451228618621826,0.8833851218223572,0.00726923432982206,-0.00017052266626639453,0.011206077321090066,-0.0009345423895865679,-0.22133317589759827,0.021753475069999695,0.0,0.7999999523162842,0.29999998211860657,0.0,0.0,warmup,/World/bittle/left_front_knee_link/toe_proxy,0.14924927132594323,0.4938132366923357,1.0441084371660951,0.1592083039861727,0.5336682830826724,0.15682101141642457,0.5,-0.7999999523162842,-0.29999998211860657,0.0,0.0,warmup,/World/bittle/right_front_knee_link/toe_proxy,-0.10375929620763458,0.5513480633346343,1.0364481869718785,-0.09314099206060238,0.5939777143260578,0.14876517892919333,0.5,0.7999999523162842,0.29999998211860657,0.0,0.0,warmup,/World/bittle/left_back_knee_link/toe_proxy,0.14924927132594323,-0.547996739408586,1.0441084371660951,0.1475339453501816,-0.5080488984141365,0.16439562075844938,0.0,-0.7999999523162842,-0.29999998211860657,0.0,0.0,warmup,/World/bittle/right_back_knee_link/toe_proxy,-0.10375929620763458,-0.490611937657187,1.0364481869718785,-0.10481703185191053,-0.4478894786988488,0.1563408790458951
0.24166666666666664,warmup_qsupport,-0.003959532827138901,-0.04214731231331825,0.8833291530609131,0.007781528884191109,-0.00014740655503915333,0.011287957905121057,0.0006041277665644884,-0.18718327581882477,0.022323397919535637,0.0,0.7999999523162842,0.29999998211860657,0.0,0.0,warmup,/World/bittle/left_front_knee_link/toe_proxy,0.14924927132594323,0.4938132366923357,1.0441084371660951,0.15927251827233874,0.5354317834451033,0.1565941185789226,0.5,-0.7999999523162842,-0.29999998211860657,0.0,0.0,warmup,/World/bittle/right_front_knee_link/toe_proxy,-0.10375929620763458,0.5513480633346343,1.0364481869718785,-0.0930716282306318,0.5957576892313263,0.14850139719319314,0.5,0.7999999523162842,0.29999998211860657,0.0,0.0,warmup,/World/bittle/left_back_knee_link/toe_proxy,0.14924927132594323,-0.547996739408586,1.0441084371660951,0.1475128609804179,-0.5062803011996139,0.16470212811314763,0.0,-0.7999999523162842,-0.29999998211860657,0.0,0.0,warmup,/World/bittle/right_back_knee_link/toe_proxy,-0.10375929620763458,-0.490611937657187,1.0364481869718785,-0.10483297896122445,-0.4461044062075212,0.156610574313901
0.24999999999999997,warmup_qsupport,-0.0039595565758645535,-0.04356372356414795,0.8832783102989197,0.008217935417335917,-0.0001320224201279226,0.011347862276598472,0.0008906053844839334,-0.153985857963562,0.02284315600991249,0.0,0.7999999523162842,0.29999998211860657,0.0,0.0,warmup,/World/bittle/left_front_knee_link/toe_proxy,0.14924927132594323,0.4938132366923357,1.0441084371660951,0.1593181576620379,0.5369072712090626,0.1564021710522706,0.5,-0.7999999523162842,-0.29999998211860657,0.0,0.0,warmup,/World/bittle/right_front_knee_link/toe_proxy,-0.10375929620763458,0.5513480633346343,1.0364481869718785,-0.09302226799026163,0.5972447267231564,0.1482791167205911,0.5,0.7999999523162842,0.29999998211860657,0.0,0.0,warmup,/World/bittle/left_back_knee_link/toe_proxy,0.14924927132594323,-0.547996739408586,1.0441084371660951,0.14749609537063216,-0.5048005300775624,0.16496461127270812,0.0,-0.7999999523162842,-0.29999998211860657,0.0,0.0,warmup,/World/bittle/right_back_knee_link/toe_proxy,-0.10375929620763458,-0.490611937657187,1.0364481869718785,-0.10484603270691396,-0.44461308474077776,0.15684278996738596
0.2583333333333333,warmup_qsupport,-0.003961755428463221,-0.04471147432923317,0.8832343220710754,0.008580358113111669,-0.00012699722248737797,0.011391792602085811,0.0009316912619397044,-0.12156838178634644,0.022591276094317436,0.0,0.7999999523162842,0.29999998211860657,0.0,0.0,warmup,/World/bittle/left_front_knee_link/toe_proxy,0.14924927132594323,0.4938132366923357,1.0441084371660951,0.15935615505004816,0.5381049057710322,0.1562425659025576,0.5,-0.7999999523162842,-0.29999998211860657,0.0,0.0,warmup,/World/bittle/right_front_knee_link/toe_proxy,-0.10375929620763458,0.5513480633346343,1.0364481869718785,-0.09298157431381542,0.5984504863842176,0.14809628110586048,0.5,0.7999999523162842,0.29999998211860657,0.0,0.0,warmup,/World/bittle/left_back_knee_link/toe_proxy,0.14924927132594323,-0.547996739408586,1.0441084371660951,0.14748832865817682,-0.5035991865952739,0.16518248600922975,0.0,-0.7999999523162842,-0.29999998211860657,0.0,0.0,warmup,/World/bittle/right_back_knee_link/toe_proxy,-0.10375929620763458,-0.490611937657187,1.0364481869718785,-0.10485110972115072,-0.44340361562529784,0.15703748859753508
0.26666666666666666,warmup_qsupport,-0.0039668302051723,-0.045604076236486435,0.8832011818885803,0.008871893504735615,-0.0001297888707699626,0.011424456596312126,0.0007310841465368867,-0.09220699220895767,0.024710729718208313,0.0,0.7999999523162842,0.29999998211860657,0.0,0.0,warmup,/World/bittle/left_front_knee_link/toe_proxy,0.14924927132594323,0.4938132366923357,1.0441084371660951,0.1593894165564812,0.5390379843399754,0.15611050519324504,0.5,-0.7999999523162842,-0.29999998211860657,0.0,0.0,warmup,/World/bittle/right_front_knee_link/toe_proxy,-0.10375929620763458,0.5513480633346343,1.0364481869718785,-0.09294636774602354,0.5993894372936432,0.14794725868756148,0.5,0.7999999523162842,0.29999998211860657,0.0,0.0,warmup,/World/bittle/left_back_knee_link/toe_proxy,0.14924927132594323,-0.547996739408586,1.0441084371660951,0.1474875627084624,-0.5026630982376173,0.16535415260585282,0.0,-0.7999999523162842,-0.29999998211860657,0.0,0.0,warmup,/World/bittle/right_back_knee_link/toe_proxy,-0.10375929620763458,-0.490611937657187,1.0364481869718785,-0.10484993550959901,-0.4424616544937371,0.1571922372231441
0.275,warmup_qsupport,-0.0039722430519759655,-0.04625356197357178,0.8831743001937866,0.009087090899102528,-0.00013421505415799764,0.011450459695066572,0.001062123803421855,-0.06488316506147385,0.02590043842792511,0.0,0.7999999523162842,0.29999998211860657,0.0,0.0,warmup,/World/bittle/left_front_knee_link/toe_proxy,0.14924927132594323,0.4938132366923357,1.0441084371660951,0.15941694979657253,0.5397169731656387,0.1560147979556418,0.5,-0.7999999523162842,-0.29999998211860657,0.0,0.0,warmup,/World/bittle/right_front_knee_link/toe_proxy,-0.10375929620763458,0.5513480633346343,1.0364481869718785,-0.09291727761887941,0.6000732349394164,0.1478396217543417,0.5,0.7999999523162842,0.29999998211860657,0.0,0.0,warmup,/World/bittle/left_back_knee_link/toe_proxy,0.14924927132594323,-0.547996739408586,1.0441084371660951,0.14748800744001458,-0.5019817058028595,0.165482669986283,0.0,-0.7999999523162842,-0.29999998211860657,0.0,0.0,warmup,/World/bittle/right_back_knee_link/toe_proxy,-0.10375929620763458,-0.490611937657187,1.0364481869718785,-0.10484793779184982,-0.44177545289273984,0.15730885719721835
0.2833333333333334,warmup_qsupport,-0.00397394597530365,-0.04667659103870392,0.8831573128700256,0.009238378366698064,-0.00013242515915955712,0.011478406292828881,0.0016149922739714384,-0.039732422679662704,0.027986060827970505,0.0,0.7999999523162842,0.29999998211860657,0.0,0.0,warmup,/World/bittle/left_front_knee_link/toe_proxy,0.14924927132594323,0.4938132366923357,1.0441084371660951,0.15943824998328823,0.5401591843322723,0.15594653019758595,0.5,-0.7999999523162842,-0.29999998211860657,0.0,0.0,warmup,/World/bittle/right_front_knee_link/toe_proxy,-0.10375929620763458,0.5513480633346343,1.0364481869718785,-0.0928942494994828,0.6005212501870042,0.1477617067084953,0.5,0.7999999523162842,0.29999998211860657,0.0,0.0,warmup,/World/bittle/left_back_knee_link/toe_proxy,0.14924927132594323,-0.547996739408586,1.0441084371660951,0.14748019449319313,-0.5015376120447962,0.16557197749161037,0.0,-0.7999999523162842,-0.29999998211860657,0.0,0.0,warmup,/World/bittle/right_back_knee_link/toe_proxy,-0.10375929620763458,-0.490611937657187,1.0364481869718785,-0.1048540269984004,-0.44132555478262153,0.15738854010623657
0.29166666666666674,warmup_qsupport,-0.003970823250710964,-0.04690031707286835,0.8831579089164734,0.009341490027890118,-0.00013226005956578005,0.011519131756682613,0.003152699675410986,-0.017927009612321854,0.031081505119800568,0.0,0.7999999523162842,0.29999998211860657,0.0,0.0,warmup,/World/bittle/left_front_knee_link/toe_proxy,0.14924927132594323,0.4938132366923357,1.0441084371660951,0.15945961605500103,0.5403924997535662,0.1558882303320181,0.5,-0.7999999523162842,-0.29999998211860657,0.0,0.0,warmup,/World/bittle/right_front_knee_link/toe_proxy,-0.10375929620763458,0.5513480633346343,1.0364481869718785,-0.09287042017110254,0.6007639966406626,0.14769704489141405,0.5,0.7999999523162842,0.29999998211860657,0.0,0.0,warmup,/World/bittle/left_back_knee_link/toe_proxy,0.14924927132594323,-0.547996739408586,1.0441084371660951,0.14745913517542975,-0.501302808490471,0.16562108774951945,0.0,-0.7999999523162842,-0.29999998211860657,0.0,0.0,warmup,/World/bittle/right_back_knee_link/toe_proxy,-0.10375929620763458,-0.490611937657187,1.0364481869718785,-0.10487262916892572,-0.44108131998163463,0.15743130388012866
0.3000000000000001,warmup_qsupport,-0.003954511135816574,-0.04694811999797821,0.8831727504730225,0.00940076979351265,-0.00012231001409666347,0.011507744432105196,0.0038301085587590933,0.0018792542396113276,0.03251254931092262,0.0,0.7999999523162842,0.29999998211860657,0.0,0.0,warmup,/World/bittle/left_front_knee_link/toe_proxy,0.14924927132594323,0.4938132366923357,1.0441084371660951,0.15943612936128607,0.5404514658612907,0.15584249068775444,0.5,-0.7999999523162842,-0.29999998211860657,0.0,0.0,warmup,/World/bittle/right_front_knee_link/toe_proxy,-0.10375929620763458,0.5513480633346343,1.0364481869718785,-0.09289454256323985,0.6008195855393043,0.14764524226138656,0.5,0.7999999523162842,0.29999998211860657,0.0,0.0,warmup,/World/bittle/left_back_knee_link/toe_proxy,0.14924927132594323,-0.547996739408586,1.0441084371660951,0.1474475111084051,-0.5012434972689908,0.16563697997980437,0.0,-0.7999999523162842,-0.29999998211860657,0.0,0.0,warmup,/World/bittle/right_back_knee_link/toe_proxy,-0.10375929620763458,-0.490611937657187,1.0364481869718785,-0.10488488722610602,-0.44102538591953927,0.15744114199989137
0.30833333333333346,warmup_qsupport,-0.0039461469277739525,-0.04684743657708168,0.883201003074646,0.009418883745922261,-0.00010804198730960364,0.011498624120591504,0.002499763621017337,0.018333664163947105,0.034060098230838776,0.0,0.7999999523162842,0.29999998211860657,0.0,0.0,warmup,/World/bittle/left_front_knee_link/toe_proxy,0.14924927132594323,0.4938132366923357,1.0441084371660951,0.15941941656995295,0.5403550032624452,0.15580768378879095,0.5,-0.7999999523162842,-0.29999998211860657,0.0,0.0,warmup,/World/bittle/right_front_knee_link/toe_proxy,-0.10375929620763458,0.5513480633346343,1.0364481869718785,-0.09291173586269595,0.6007206479853522,0.14760576234266695,0.5,0.7999999523162842,0.29999998211860657,0.0,0.0,warmup,/World/bittle/left_back_knee_link/toe_proxy,0.14924927132594323,-0.547996739408586,1.0441084371660951,0.14744029930007949,-0.5013400502731901,0.16562087124867378,0.0,-0.7999999523162842,-0.29999998211860657,0.0,0.0,warmup,/World/bittle/right_back_knee_link/toe_proxy,-0.10375929620763458,-0.490611937657187,1.0364481869718785,-0.10489257817437429,-0.441124413891864,0.15742036294161713
0.3166666666666668,warmup_qsupport,-0.003953281324356794,-0.046624600887298584,0.883243203163147,0.009401267243354081,-0.0001109604476116139,0.011510477349308105,0.0009738029912114143,0.03130931034684181,0.03650228679180145,0.0,0.7999999523162842,0.29999998211860657,0.0,0.0,warmup,/World/bittle/left_front_knee_link/toe_proxy,0.14924927132594323,0.4938132366923357,1.0441084371660951,0.15943081725612193,0.5401270024178134,0.1557766300457785,0.5,-0.7999999523162842,-0.29999998211860657,0.0,0.0,warmup,/World/bittle/right_front_knee_link/toe_proxy,-0.10375929620763458,0.5513480633346343,1.0364481869718785,-0.09289960720214076,0.6004957816438268,0.14757648124084868,0.5,0.7999999523162842,0.29999998211860657,0.0,0.0,warmup,/World/bittle/left_back_knee_link/toe_proxy,0.14924927132594323,-0.547996739408586,1.0441084371660951,0.14743935199553515,-0.5015679421619778,0.1655715014770514,0.0,-0.7999999523162842,-0.29999998211860657,0.0,0.0,warmup,/World/bittle/right_back_knee_link/toe_proxy,-0.10375929620763458,-0.490611937657187,1.0364481869718785,-0.10489279928269347,-0.4413491712618553,0.1573727631736061
0.3250000000000002,warmup_qsupport,-0.003965241834521294,-0.046308498829603195,0.8833013772964478,0.009350639620868286,-0.0001214957022241311,0.011511209799734483,0.0011733138235285878,0.04164927825331688,0.03757574409246445,0.0,0.7999999523162842,0.29999998211860657,0.0,0.0,warmup,/World/bittle/left_front_knee_link/toe_proxy,0.14924927132594323,0.4938132366923357,1.0441084371660951,0.15944123956737644,0.5398023014440482,0.15574710101813877,0.5,-0.7999999523162842,-0.29999998211860657,0.0,0.0,warmup,/World/bittle/right_front_knee_link/toe_proxy,-0.10375929620763458,0.5513480633346343,1.0364481869718785,-0.09288925273629785,0.6001717126288554,0.14755266411021145,0.5,0.7999999523162842,0.29999998211860657,0.0,0.0,warmup,/World/bittle/left_back_knee_link/toe_proxy,0.14924927132594323,-0.547996739408586,1.0441084371660951,0.14744901129777083,-0.5018932583593935,0.16548936023830127,0.0,-0.7999999523162842,-0.29999998211860657,0.0,0.0,warmup,/World/bittle/right_back_knee_link/toe_proxy,-0.10375929620763458,-0.490611937657187,1.0364481869718785,-0.10488320793574579,-0.44167385558907196,0.15729632625548523
0.33333333333333354,warmup_qsupport,-0.003971076104789972,-0.04591834917664528,0.8833686709403992,0.009278996601614822,-0.00012261846657462465,0.011509465041627526,0.0022721232380717993,0.04989106208086014,0.03794410824775696,0.0,0.7999999523162842,0.29999998211860657,0.0,0.0,warmup,/World/bittle/left_front_knee_link/toe_proxy,0.14924927132594323,0.4938132366923357,1.0441084371660951,0.15944178178444582,0.5394004985826635,0.15572188574431325,0.5,-0.7999999523162842,-0.29999998211860657,0.0,0.0,warmup,/World/bittle/right_front_knee_link/toe_proxy,-0.10375929620763458,0.5513480633346343,1.0364481869718785,-0.092888767763965,0.5997700461678946,0.14753206301006752,0.5,0.7999999523162842,0.29999998211860657,0.0,0.0,warmup,/World/bittle/left_back_knee_link/toe_proxy,0.14924927132594323,-0.547996739408586,1.0441084371660951,0.14745137110263934,-0.5022955434978339,0.16538952817120156,0.0,-0.7999999523162842,-0.29999998211860657,0.0,0.0,warmup,/World/bittle/right_back_knee_link/toe_proxy,-0.10375929620763458,-0.490611937657187,1.0364481869718785,-0.10488090511387381,-0.44207600439653805,0.1572010976169441
0.3416666666666669,warmup_qsupport,-0.003970925230532885,-0.04546986147761345,0.8834409117698669,0.009200394849212406,-0.00011223247908188647,0.011512839110308622,0.002662253100425005,0.055724840611219406,0.03883201256394386,0.0,0.7999999523162842,0.29999998211860657,0.0,0.0,warmup,/World/bittle/left_front_knee_link/toe_proxy,0.14924927132594323,0.4938132366923357,1.0441084371660951,0.15943664385715542,0.5389387679936298,0.15569787285500605,0.5,-0.7999999523162842,-0.29999998211860657,0.0,0.0,warmup,/World/bittle/right_front_knee_link/toe_proxy,-0.10375929620763458,0.5513480633346343,1.0364481869718785,-0.09289368611347494,0.5993098008232092,0.14751016493281172,0.5,0.7999999523162842,0.29999998211860657,0.0,0.0,warmup,/World/bittle/left_back_knee_link/toe_proxy,0.14924927132594323,-0.547996739408586,1.0441084371660951,0.14744271825502295,-0.5027582533969841,0.16528351160741223,0.0,-0.7999999523162842,-0.29999998211860657,0.0,0.0,warmup,/World/bittle/right_back_knee_link/toe_proxy,-0.10375929620763458,-0.490611937657187,1.0364481869718785,-0.10488933888987256,-0.44253722919236466,0.15709718405634218
0.35000000000000026,warmup_qsupport,-0.003970995545387268,-0.04498104378581047,0.8835186958312988,0.00910962365929937,-0.00010519026606974912,0.011510936969398861,0.0022243689745664597,0.059808023273944855,0.039340827614068985,0.0,0.7999999523162842,0.29999998211860657,0.0,0.0,warmup,/World/bittle/left_front_knee_link/toe_proxy,0.14924927132594323,0.4938132366923357,1.0441084371660951,0.1594289332869848,0.5384354986826426,0.15567459272708767,0.5,-0.7999999523162842,-0.29999998211860657,0.0,0.0,warmup,/World/bittle/right_front_knee_link/toe_proxy,-0.10375929620763458,0.5513480633346343,1.0364481869718785,-0.09290147050210155,0.5988067812029174,0.14749059190265365,0.5,0.7999999523162842,0.29999998211860657,0.0,0.0,warmup,/World/bittle/left_back_knee_link/toe_proxy,0.14924927132594323,-0.547996739408586,1.0441084371660951,0.14743698921368797,-0.5032624639765284,0.16516559091839525,0.0,-0.7999999523162842,-0.29999998211860657,0.0,0.0,warmup,/World/bittle/right_back_knee_link/toe_proxy,-0.10375929620763458,-0.490611937657187,1.0364481869718785,-0.10489514146431532,-0.4430411902167603,0.1569829568364583
0.3583333333333336,warmup_qsupport,-0.00397713016718626,-0.04446534812450409,0.883599042892456,0.009009050076559083,-0.00010458417528621523,0.011512604068360273,0.0014722270425409079,0.06220078095793724,0.03989472985267639,0.0,0.7999999523162842,0.29999998211860657,0.0,0.0,warmup,/World/bittle/left_front_knee_link/toe_proxy,0.14924927132594323,0.4938132366923357,1.0441084371660951,0.15942992485265664,0.5379031557724008,0.15565315053623507,0.5,-0.7999999523162842,-0.29999998211860657,0.0,0.0,warmup,/World/bittle/right_front_knee_link/toe_proxy,-0.10375929620763458,0.5513480633346343,1.0364481869718785,-0.09290038133671957,0.5982756821168118,0.14747506454372733,0.5,0.7999999523162842,0.29999998211860657,0.0,0.0,warmup,/World/bittle/left_back_knee_link/toe_proxy,0.14924927132594323,-0.547996739408586,1.0441084371660951,0.14743624409333309,-0.50379576832123,0.16503937414145284,0.0,-0.7999999523162842,-0.29999998211860657,0.0,0.0,warmup,/World/bittle/right_back_knee_link/toe_proxy,-0.10375929620763458,-0.490611937657187,1.0364481869718785,-0.10489578923504991,-0.44357325087577615,0.1568626398034739
0.366666666666667,warmup_qsupport,-0.00398637168109417,-0.04393565282225609,0.8836816549301147,0.008901460879409791,-0.00010780617317818404,0.011511764559433434,0.0014698662562295794,0.06348752975463867,0.03967396169900894,0.0,0.7999999523162842,0.29999998211860657,0.0,0.0,warmup,/World/bittle/left_front_knee_link/toe_proxy,0.14924927132594323,0.4938132366923357,1.0441084371660951,0.1594331245280687,0.5373560491028112,0.15563261236692247,0.5,-0.7999999523162842,-0.29999998211860657,0.0,0.0,warmup,/World/bittle/right_front_knee_link/toe_proxy,-0.10375929620763458,0.5513480633346343,1.0364481869718785,-0.09289725459351846,0.5977292498366431,0.14746183679064945,0.5,0.7999999523162842,0.29999998211860657,0.0,0.0,warmup,/World/bittle/left_back_knee_link/toe_proxy,0.14924927132594323,-0.547996739408586,1.0441084371660951,0.14744031832367097,-0.5043438786362201,0.16490679903404876,0.0,-0.7999999523162842,-0.29999998211860657,0.0,0.0,warmup,/World/bittle/right_back_knee_link/toe_proxy,-0.10375929620763458,-0.490611937657187,1.0364481869718785,-0.10489178781098353,-0.44412068694587414,0.1567373589785279
0.37500000000000033,warmup_qsupport,-0.003999787848442793,-0.04339974373579025,0.8837611079216003,0.008791347538147984,-0.00011168461325408741,0.011516855959229131,0.0008406764827668667,0.06338673830032349,0.040145907551050186,0.0,0.7999999523162842,0.29999998211860657,0.0,0.0,warmup,/World/bittle/left_front_knee_link/toe_proxy,0.14924927132594323,0.4938132366923357,1.0441084371660951,0.15944367638517615,0.5368012679133005,0.15561639646153624,0.5,-0.7999999523162842,-0.29999998211860657,0.0,0.0,warmup,/World/bittle/right_front_knee_link/toe_proxy,-0.10375929620763458,0.5513480633346343,1.0364481869718785,-0.09288636917622654,0.5971766486528564,0.1474532377818412,0.5,0.7999999523162842,0.29999998211860657,0.0,0.0,warmup,/World/bittle/left_back_knee_link/toe_proxy,0.14924927132594323,-0.547996739408586,1.0441084371660951,0.14744556626660518,-0.5048993850369928,0.16477592460910473,0.0,-0.7999999523162842,-0.29999998211860657,0.0,0.0,warmup,/World/bittle/right_back_knee_link/toe_proxy,-0.10375929620763458,-0.490611937657187,1.0364481869718785,-0.10488620707165014,-0.4446740134453567,0.15661408493886683
0.3833333333333337,warmup_qsupport,-0.004010725766420364,-0.04286960884928703,0.8838430643081665,0.00868826675197362,-0.00011911712549075851,0.011515499532116271,0.0018769789021462202,0.06243341788649559,0.04008578509092331,0.0,0.7999999523162842,0.29999998211860657,0.0,0.0,warmup,/World/bittle/left_front_knee_link/toe_proxy,0.14924927132594323,0.4938132366923357,1.0441084371660951,0.15944898578829209,0.5362545864601242,0.1555932176969213,0.5,-0.7999999523162842,-0.29999998211860657,0.0,0.0,warmup,/World/bittle/right_front_knee_link/toe_proxy,-0.10375929620763458,0.5513480633346343,1.0364481869718785,-0.09288123348953317,0.596630490346183,0.14743815990459155,0.5,0.7999999523162842,0.29999998211860657,0.0,0.0,warmup,/World/bittle/left_back_knee_link/toe_proxy,0.14924927132594323,-0.547996739408586,1.0441084371660951,0.1474522887254842,-0.5054471647891828,0.1646454556233179,0.0,-0.7999999523162842,-0.29999998211860657,0.0,0.0,warmup,/World/bittle/right_back_knee_link/toe_proxy,-0.10375929620763458,-0.490611937657187,1.0364481869718785,-0.10487965812570792,-0.44522127020920327,0.15649170139021532
0.39166666666666705,warmup_qsupport,-0.004016051068902016,-0.0423445887863636,0.8839203119277954,0.008578549648814921,-0.00011462091699982267,0.011520319479957391,0.002066216664388776,0.062092140316963196,0.038312505930662155,0.0,0.7999999523162842,0.29999998211860657,0.0,0.0,warmup,/World/bittle/left_front_knee_link/toe_proxy,0.14924927132594323,0.4938132366923357,1.0441084371660951,0.15945009763582726,0.5357110121957207,0.15558002141404242,0.5,-0.7999999523162842,-0.29999998211860657,0.0,0.0,warmup,/World/bittle/right_front_knee_link/toe_proxy,-0.10375929620763458,0.5513480633346343,1.0364481869718785,-0.09287977356606533,0.5960890118036494,0.1474304436617463,0.5,0.7999999523162842,0.29999998211860657,0.0,0.0,warmup,/World/bittle/left_back_knee_link/toe_proxy,0.14924927132594323,-0.547996739408586,1.0441084371660951,0.14744837943014977,-0.5059915762533873,0.16451791294917525,0.0,-0.7999999523162842,-0.29999998211860657,0.0,0.0,warmup,/World/bittle/right_back_knee_link/toe_proxy,-0.10375929620763458,-0.490611937657187,1.0364481869718785,-0.10488322006817477,-0.4457635860720977,0.156369622289759
0.4000000000000004,warmup_qsupport,-0.004026542417705059,-0.041826579719781876,0.8839871883392334,0.008466740803374955,-0.00011602829609441596,0.011524822260584471,0.0007640986586920917,0.0605023019015789,0.038424037396907806,0.0,0.7999999523162842,0.29999998211860657,0.0,0.0,warmup,/World/bittle/left_front_knee_link/toe_proxy,0.14924927132594323,0.4938132366923357,1.0441084371660951,0.15945724625609384,0.5351742647361781,0.15557721527954999,0.5,-0.7999999523162842,-0.29999998211860657,0.0,0.0,warmup,/World/bittle/right_front_knee_link/toe_proxy,-0.10375929620763458,0.5513480633346343,1.0364481869718785,-0.092872370192434,0.5955543158283957,0.14743473363017434,0.5,0.7999999523162842,0.29999998211860657,0.0,0.0,warmup,/World/bittle/left_back_knee_link/toe_proxy,0.14924927132594323,-0.547996739408586,1.0441084371660951,0.14745083732200773,-0.5065292898587334,0.16439865218216884,0.0,-0.7999999523162842,-0.29999998211860657,0.0,0.0,warmup,/World/bittle/right_back_knee_link/toe_proxy,-0.10375929620763458,-0.490611937657187,1.0364481869718785,-0.10488050809843605,-0.4462992483322841,0.15625744085573048
0.40833333333333377,warmup_qsupport,-0.004041234962642193,-0.04132848605513573,0.8840564489364624,0.00836412261858963,-0.00012132354830773372,0.011529923624220815,0.0010083724046126008,0.05773695558309555,0.03852999210357666,0.0,0.7999999523162842,0.29999998211860657,0.0,0.0,warmup,/World/bittle/left_front_knee_link/toe_proxy,0.14924927132594323,0.4938132366923357,1.0441084371660951,0.1594697691258298,0.5346587246456791,0.15556621512116822,0.5,-0.7999999523162842,-0.29999998211860657,0.0,0.0,warmup,/World/bittle/right_front_knee_link/toe_proxy,-0.10375929620763458,0.5513480633346343,1.0364481869718785,-0.09285959830479686,0.5950409136441599,0.14743125433197937,0.5,0.7999999523162842,0.29999998211860657,0.0,0.0,warmup,/World/bittle/left_back_knee_link/toe_proxy,0.14924927132594323,-0.547996739408586,1.0441084371660951,0.14745804590084227,-0.5070457459073134,0.1642808179685942,0.0,-0.7999999523162842,-0.29999998211860657,0.0,0.0,warmup,/World/bittle/right_back_knee_link/toe_proxy,-0.10375929620763458,-0.490611937657187,1.0364481869718785,-0.10487305126697986,-0.44681356660650257,0.1561471121178024
0.41666666666666713,warmup_qsupport,-0.004049465525895357,-0.04085636883974075,0.8841252326965332,0.008268071349109387,-0.00012057760911754631,0.011535935510170178,0.0020056208595633507,0.05433150380849838,0.0384390614926815,0.0,0.7999999523162842,0.29999998211860657,0.0,0.0,warmup,/World/bittle/left_front_knee_link/toe_proxy,0.14924927132594323,0.4938132366923357,1.0441084371660951,0.1594756305500605,0.5341700850173845,0.15555281660734366,0.5,-0.7999999523162842,-0.29999998211860657,0.0,0.0,warmup,/World/bittle/right_front_knee_link/toe_proxy,-0.10375929620763458,0.5513480633346343,1.0364481869718785,-0.09285336596143681,0.5945545700574808,0.14742345489334344,0.5,0.7999999523162842,0.29999998211860657,0.0,0.0,warmup,/World/bittle/left_back_knee_link/toe_proxy,0.14924927132594323,-0.547996739408586,1.0441084371660951,0.14745764449781062,-0.5075351381386742,0.1641673535947121,0.0,-0.7999999523162842,-0.29999998211860657,0.0,0.0,warmup,/World/bittle/right_back_knee_link/toe_proxy,-0.10375929620763458,-0.490611937657187,1.0364481869718785,-0.10487308265275491,-0.44730066290462583,0.15603923240921647
0.4250000000000005,warmup_qsupport,-0.004049219191074371,-0.04041396826505661,0.8841901421546936,0.008179970599538896,-0.00011768682877575293,0.011532611540352032,0.002902231877669692,0.05083581805229187,0.03764462471008301,0.0,0.7999999523162842,0.29999998211860657,0.0,0.0,warmup,/World/bittle/left_front_knee_link/toe_proxy,0.14924927132594323,0.4938132366923357,1.0441084371660951,0.15946803732921241,0.5337140150038917,0.15553904164703303,0.5,-0.7999999523162842,-0.29999998211860657,0.0,0.0,warmup,/World/bittle/right_front_knee_link/toe_proxy,-0.10375929620763458,0.5513480633346343,1.0364481869718785,-0.0928611319646426,0.5940983699575777,0.14741427754710346,0.5,0.7999999523162842,0.29999998211860657,0.0,0.0,warmup,/World/bittle/left_back_knee_link/toe_proxy,0.14924927132594323,-0.547996739408586,1.0441084371660951,0.14745351398738432,-0.5079919781994735,0.16406176878552153,0.0,-0.7999999523162842,-0.29999998211860657,0.0,0.0,warmup,/World/bittle/right_back_knee_link/toe_proxy,-0.10375929620763458,-0.490611937657187,1.0364481869718785,-0.10487738544689451,-0.44775763316272543,0.15593823199310336
0.43333333333333385,warmup_qsupport,-0.0040488350205123425,-0.03999636694788933,0.8842460513114929,0.008091097313272951,-0.00011058243947472939,0.011535650127408682,0.0024212731514126062,0.04757160693407059,0.036829765886068344,0.0,0.7999999523162842,0.29999998211860657,0.0,0.0,warmup,/World/bittle/left_front_knee_link/toe_proxy,0.14924927132594323,0.4938132366923357,1.0441084371660951,0.15946329535335982,0.5332816497823663,0.15553506539231596,0.5,-0.7999999523162842,-0.29999998211860657,0.0,0.0,warmup,/World/bittle/right_front_knee_link/toe_proxy,-0.10375929620763458,0.5513480633346343,1.0364481869718785,-0.09286560918262207,0.5936674726549256,0.14741386988106764,0.5,0.7999999523162842,0.29999998211860657,0.0,0.0,warmup,/World/bittle/left_back_knee_link/toe_proxy,0.14924927132594323,-0.547996739408586,1.0441084371660951,0.14744560658215428,-0.5084249503178254,0.163965127378201,0.0,-0.7999999523162842,-0.29999998211860657,0.0,0.0,warmup,/World/bittle/right_back_knee_link/toe_proxy,-0.10375929620763458,-0.490611937657187,1.0364481869718785,-0.10488502855008616,-0.44818913744959965,0.15584514583030368
0.4416666666666672,warmup_qsupport,-0.004052519798278809,-0.03960864990949631,0.8842987418174744,0.00801259614084526,-0.00011011676917469547,0.011532190029346044,0.0019653267227113247,0.04406733438372612,0.03640887886285782,0.0,0.7999999523162842,0.29999998211860657,0.0,0.0,warmup,/World/bittle/left_front_knee_link/toe_proxy,0.14924927132594323,0.4938132366923357,1.0441084371660951,0.15946059103674473,0.5328818587339118,0.15552741962134448,0.5,-0.7999999523162842,-0.29999998211860657,0.0,0.0,warmup,/World/bittle/right_front_knee_link/toe_proxy,-0.10375929620763458,0.5513480633346343,1.0364481869718785,-0.0928685245643143,0.5932674461918486,0.1474108538482926,0.5,0.7999999523162842,0.29999998211860657,0.0,0.0,warmup,/World/bittle/left_back_knee_link/toe_proxy,0.14924927132594323,-0.547996739408586,1.0441084371660951,0.1474465067897919,-0.5088254640299089,0.16387570073599095,0.0,-0.7999999523162842,-0.29999998211860657,0.0,0.0,warmup,/World/bittle/right_back_knee_link/toe_proxy,-0.10375929620763458,-0.490611937657187,1.0364481869718785,-0.10488433888845947,-0.44858988668037214,0.1557603371495107
