wall_time_s,elapsed_min,completed_total,window_episode_count,checkpoint_count,latest_checkpoint,train_episode_count,train_success_rate,train_survival_ratio_mean,train_v_fwd_mean_mean,train_v_fwd_rmse_mean,train_yaw_drift_abs_final_mean,train_yaw_rate_abs_mean_mean,train_roll_rms_mean,train_pitch_rms_mean,train_tilt_rms_mean,train_vertical_bounce_rms_mean,train_contact_continuity_score_mean,train_diag_support_asym_score_mean,train_swing_scuff_count_mean,train_residual_rms_mean,train_residual_rate_rms_mean,train_joint_vel_rms_mean,train_return_total_mean
1776652575.106339,0.3334442774454753,32,32,1,model_0.pt,32,1.0,1.0,0.10302577936090529,0.20372282806783915,0.030825119771179743,0.02762780396733433,0.017181271250592545,0.01429235062096268,0.022406891680102892,0.13964353874325752,0.4441666668280959,0.7436458356678486,87.4453125,0.4598783226683736,0.35506752133369446,0.45697593688964844,175.2604775428772
1776652595.1423666,0.6673780719439188,64,64,1,model_0.pt,64,1.0,1.0,0.11928513529710472,0.1988015458919108,0.02827855303621618,0.026668144622817636,0.016797613934613764,0.013855266777682118,0.02184658328890416,0.1398742813616991,0.4500000015832484,0.7499479176476598,88.08203125,0.4732403247617185,0.35438349517062306,0.4568844810128212,178.05465698242188
1776652615.1758533,1.001269515355428,128,128,1,model_0.pt,128,1.0,1.0,0.1341714930604212,0.1895122064743191,0.02861648177167808,0.025661199833848514,0.016443966633232776,0.014427601425268222,0.0220170041585675,0.13907389214728028,0.45817708456888795,0.7342968750745058,88.224609375,0.5044570707250386,0.35152804222889245,0.45198351866565645,186.76640796661377
1776652635.1825602,1.3347146312395732,160,128,1,model_0.pt,128,1.0,1.0,0.14666553330607712,0.18016782752238214,0.02727067281557538,0.023534403408120852,0.015924783154332545,0.015216816682368517,0.022199691556365867,0.13863974786363542,0.46993489703163505,0.72203124826774,88.69140625,0.5428669643588364,0.3476551834028214,0.44442914542742074,195.80234944820404
1776652655.196404,1.668278694152832,224,128,1,model_0.pt,128,1.0,1.0,0.14298586826771498,0.16348968900274485,0.024064813249651706,0.019394386290514376,0.014854949600703549,0.017303651773545425,0.022885271623689793,0.13805459544528276,0.4910937480162829,0.690572913736105,88.78515625,0.6181289441883564,0.33696338860318065,0.41774244187399745,213.2426233291626
1776652675.20469,2.001750127474467,256,128,2,model_100.pt,128,1.0,1.0,0.13909912738017738,0.15923447004752234,0.020427267223794843,0.01780767775926506,0.0150399713893421,0.01766005680838134,0.02326397442459654,0.13789034739602357,0.498164058662951,0.6833723951131105,88.484375,0.6460062372498214,0.33202712680213153,0.4081377836409956,217.93244409561157
1776652695.2131922,2.3352251648902893,320,128,2,model_100.pt,128,1.0,1.0,0.13628386246273294,0.15481654956238344,0.01618101715234843,0.01697244382376084,0.017188467892992776,0.01778491958248196,0.02485024222827969,0.13705035077873617,0.5096354098059237,0.6733463550917804,88.1953125,0.6809527152217925,0.3237963349092752,0.394537269603461,222.37600076198578
1776652715.2286339,2.668815859158834,352,128,2,model_100.pt,128,1.0,1.0,0.1392072883900255,0.15147798706311733,0.014327334693916782,0.016525247527169995,0.018733559307293035,0.018083290218783077,0.026146334007700785,0.13616469083353877,0.5130338477902114,0.6709114615805447,88.478515625,0.6940025510266423,0.32055152440443635,0.39306107605807483,225.28712213039398
1776652735.2361116,3.0022738218307494,416,128,2,model_100.pt,128,1.0,1.0,0.14190493803471327,0.14833617373369634,0.013208339351422183,0.015625532920239493,0.02129087719367817,0.01721384892880451,0.027462242136500736,0.13532418466638774,0.5177213486749679,0.6760286497883499,88.990234375,0.7134179836139083,0.31512072193436325,0.3866836328525096,228.74796199798584
1776652755.2440524,3.335739501317342,480,128,2,model_100.pt,128,1.0,1.0,0.14317313360515982,0.14281707676127553,0.013139021681581653,0.01462707927566953,0.021771184023236856,0.016796653886558488,0.02756828603968657,0.13514333544299006,0.5203385355416685,0.6814713552594185,89.328125,0.7315180418081582,0.31098729418590665,0.3827114070300013,233.17802131175995
1776652775.253647,3.669232745965322,512,128,3,model_200.pt,128,1.0,1.0,0.13995683996472508,0.1402792333974503,0.012202731614706863,0.014397398299479391,0.02149120492686052,0.01677131863834802,0.0273368754468978,0.13470125722233206,0.5213932225015014,0.6843489580787718,89.498046875,0.7389620756730437,0.30910397483967245,0.37930487864650786,235.5526237487793
1776652795.2665672,4.002781414985657,544,128,3,model_200.pt,128,1.0,1.0,0.138117365015205,0.13685130287194625,0.011809311184151738,0.014072148886043578,0.021450006621307693,0.016718973151000682,0.027263485430915203,0.13381271774414927,0.5228255153633654,0.684934894554317,89.92578125,0.7486154646612704,0.3065284176263958,0.3759838070254773,238.25284600257874
1776652815.2787347,4.336317539215088,608,128,3,model_200.pt,128,1.0,1.0,0.13459925050847232,0.13356448081322014,0.010398187289865746,0.013592253140814137,0.020349080106825568,0.0172050242399564,0.026751223161884868,0.13458704645745456,0.5244791619479656,0.6830729185603559,90.515625,0.757016216404736,0.30349266598932445,0.37192758242599666,242.99494457244873
1776652835.2934635,4.669896352291107,640,128,3,model_200.pt,128,1.0,1.0,0.1353826766135171,0.13007097324589267,0.010376991101338717,0.013149837010132615,0.01916102640097961,0.01776536798570305,0.02624477267924928,0.13576379627920687,0.5261588525027037,0.6832942739129066,91.05859375,0.7607880807481706,0.301235887221992,0.3724562730640173,246.10892283916473
1776652855.3081305,5.003474136193593,672,128,3,model_200.pt,128,1.0,1.0,0.1346797330188565,0.12812199944164604,0.010171710002623513,0.012842660136811901,0.017618425576074515,0.01772573494235985,0.025090023179172177,0.13547329069115222,0.5284374998882413,0.6857682317495346,91.3984375,0.7599117723293602,0.3001519446261227,0.372627261094749,248.28206634521484
1776652875.3337383,5.33723426659902,736,128,3,model_200.pt,128,1.0,1.0,0.12920152815058827,0.12428510311292484,0.018407615681326206,0.012621380999917164,0.015238146574120037,0.0161576448881533,0.02227052782691878,0.13553651224356145,0.5328255253843963,0.6893880199640989,91.39453125,0.7662046072073281,0.29633927694521844,0.3687037196941674,249.83025813102722
1776652895.3483398,5.670810957749684,768,128,4,model_300.pt,128,1.0,1.0,0.12759391870349646,0.12659255304606631,0.02230839762432879,0.012706326800980605,0.01489094975113403,0.015371527180832345,0.021456822168975598,0.13471815991215408,0.5351041718386114,0.6868750001303852,90.884765625,0.7667239964939654,0.2960885795764625,0.3670062709134072,247.90813505649567
1776652915.3556838,6.004266691207886,800,128,4,model_300.pt,128,1.0,1.0,0.12846885004546493,0.12555250007426366,0.023167057867794938,0.012561235707835294,0.015060299265314825,0.014738282930920832,0.021130576697076953,0.1352787751238793,0.5367708383128047,0.6870442717336118,90.654296875,0.7676915051415563,0.2958027380518615,0.3668505302630365,249.27047896385193
1776652935.3696675,6.337833086649577,864,128,4,model_300.pt,128,1.0,1.0,0.13163804868236184,0.12746688263723627,0.015568273799317467,0.011934943897358608,0.014582749448891263,0.013676406102604233,0.020056390066920757,0.13560891267843544,0.5414192783646286,0.6896614613942802,90.421875,0.7622753563337028,0.29732257639989257,0.3675839880015701,249.93490743637085
1776652955.3856874,6.67143341700236,896,128,4,model_300.pt,128,1.0,1.0,0.1357882940210402,0.12705556221771985,0.011824199330476404,0.011521409214765299,0.01377311092801392,0.012775724491802976,0.018847448188455407,0.1361892344430089,0.5440234458073974,0.6919921883381903,90.353515625,0.757827578112483,0.2990350278560072,0.36872781394049525,252.31095671653748
1776652975.3998652,7.005003046989441,928,128,4,model_300.pt,128,1.0,1.0,0.14128597977105528,0.12957195879425853,0.011674032510654797,0.011348106309014838,0.01282262199674733,0.011920285392989172,0.0175693942772456,0.13576917455065995,0.5464323009364307,0.688971356023103,89.88671875,0.7549110208638012,0.30086122918874025,0.36985133681446314,251.6181242465973
1776652995.4208784,7.3386866013209024,960,128,4,model_300.pt,128,1.0,1.0,0.14612027897965163,0.1301440256065689,0.012710019806945638,0.011405678043956868,0.012340785382548347,0.011803624831372872,0.01713977609673273,0.1344444431597367,0.5488020936027169,0.6828645840287209,89.302734375,0.7549656671471894,0.301782637136057,0.369626427302137,253.19125843048096
1776653015.4324992,7.672213613986969,1024,128,5,model_400.pt,128,1.0,1.0,0.1465242737904191,0.1281944748479873,0.01525966912140575,0.011042042118788231,0.011831633222755045,0.011591360056627309,0.01663522932226958,0.13263101293705404,0.5532552166841924,0.6750390608794987,88.69921875,0.7733219456858933,0.2944934172555804,0.36621735198423266,256.38332664966583
1776653035.4454916,8.00576348702113,1056,128,5,model_400.pt,128,1.0,1.0,0.14157341280952096,0.1270206326735206,0.014922765283699846,0.010864354619116057,0.01157028877059929,0.011927757281227969,0.016683023639587596,0.13256458833348006,0.5560286524705589,0.6714062476530671,88.564453125,0.7822305699810386,0.29046745249070227,0.36304786056280136,258.1910226345062
1776653055.456761,8.339284642537434,1088,128,5,model_400.pt,128,1.0,1.0,0.13844586204504594,0.12616493611130863,0.014982635884280171,0.010651635479007382,0.010945532627374632,0.011649876410956495,0.016048369452281816,0.1324758754344657,0.5597526077181101,0.6650390597060323,88.333984375,0.7858782014809549,0.2886815897654742,0.36087628128007054,259.5893257856369
1776653075.4660084,8.672772101561229,1152,128,5,model_400.pt,128,1.0,1.0,0.13575409655459225,0.1266090691788122,0.013435055481522795,0.010290037222148385,0.010520467181777349,0.011369050560460892,0.01552775099208337,0.1335507882758975,0.5635546864941716,0.6615755204111338,87.732421875,0.786585605237633,0.2878249688073993,0.3576559601351619,261.39477360248566
1776653095.4734101,9.006228796641032,1184,128,5,model_400.pt,128,1.0,1.0,0.13867627107538283,0.12475616816664115,0.013967602357524811,0.010250187944620848,0.010401393406937132,0.01131134299794212,0.01540409290745276,0.13357640412868932,0.5654557272791862,0.6607421902008355,87.51171875,0.7856599478982389,0.28818233869969845,0.35786148998886347,263.5525393486023
1776653115.481253,9.339692842960357,1248,128,5,model_400.pt,128,1.0,1.0,0.14011049031978473,0.11968300666194409,0.012748538672212817,0.010471732370206155,0.010334341117413715,0.012074784419382922,0.015949714133309208,0.1341346722911112,0.5726953078992665,0.6526171904988587,87.18359375,0.7848585057072341,0.28858777810819447,0.3552007044199854,269.63967192173004
1776653135.4896646,9.673166370391845,1280,128,6,model_500.pt,128,1.0,1.0,0.13833159091882408,0.12160495010903105,0.013147289575499599,0.01055240913410671,0.010296005420968868,0.012433128693373874,0.016187363707709276,0.1333931167027913,0.5768619724549353,0.6472395854070783,87.10546875,0.787314553745091,0.2869107590522617,0.35199639364145696,268.6437853574753
1776653155.4977274,10.006634084383647,1312,128,6,model_500.pt,128,1.0,1.0,0.1362697131698951,0.12361202551983297,0.013496168377059803,0.010601436071738135,0.010552802865277044,0.012638991694984725,0.016510363872247434,0.13368917885236442,0.5787109285593033,0.6445703101344407,87.033203125,0.7904351036995649,0.2854067168664187,0.34963747789151967,267.3998773097992
1776653175.507562,10.340131326516468,1376,128,6,model_500.pt,128,1.0,1.0,0.13674810656812042,0.11956563248531893,0.018432688003485964,0.010907641968515236,0.010946300310024526,0.01195243217443931,0.016243981832053632,0.13360907818423584,0.5751041583716869,0.6445963513106108,86.697265625,0.795820246450603,0.2824178838636726,0.35033602407202125,270.06108915805817
1776653195.52157,10.673698127269745,1408,128,6,model_500.pt,128,1.0,1.0,0.13565539242699742,0.1159519532811828,0.018923243197832562,0.010932403318292927,0.010895043968048412,0.011393503544240957,0.01580436962494792,0.13325596851063892,0.5744140543974936,0.6426041638478637,86.576171875,0.793795311357826,0.28331970353610814,0.3497585686855018,273.8377482891083
1776653215.5325086,11.007213771343231,1472,128,6,model_500.pt,128,1.0,1.0,0.13036687741987407,0.11564923072000965,0.015192461536116753,0.010616688785376027,0.011015067364496645,0.011416228680900531,0.015906861104920577,0.1336856642155908,0.5741536398418248,0.6450260379351676,86.8359375,0.7954437844455242,0.2814837491605431,0.3457963669206947,273.58179688453674
1776653235.539216,11.340658895174663,1504,128,6,model_500.pt,128,1.0,1.0,0.1307422604295425,0.11656005628174171,0.014745771980869904,0.010515932917769533,0.011270099275861867,0.01149302417979925,0.016143120988808327,0.13412635307759047,0.5742447851225734,0.6489192666485906,87.234375,0.794450368732214,0.28205562802031636,0.3466144963167608,272.37916898727417
1776653255.5487883,11.674151766300202,1536,128,7,model_600.pt,128,1.0,1.0,0.1312097612535581,0.11670423502800986,0.01607930010891323,0.010686012508813292,0.011639742850093171,0.011707640729582636,0.016556661888741258,0.13481653248891234,0.572278639767319,0.6534895785152912,87.58984375,0.7952254898846149,0.28209545207209885,0.3477604838553816,270.0069227218628
1776653275.5552366,12.007592570781707,1600,128,7,model_600.pt,128,1.0,1.0,0.1364844611962326,0.11620307486737147,0.01948674575419318,0.011435651598731056,0.01315747571788961,0.011562527437490644,0.0175559629563303,0.1347089988994412,0.5665494753047824,0.6572395809926093,87.904296875,0.7882746895775199,0.28661094419658184,0.35159241408109665,267.91919445991516
1776653295.5667512,12.341117815176647,1632,128,7,model_600.pt,128,1.0,1.0,0.13612003036541864,0.11527650291100144,0.02006932151948604,0.01171516315662302,0.01401926494872896,0.011459744979219977,0.01815522667051932,0.13388697523623705,0.566145830322057,0.6554817711003125,87.62109375,0.7891952670179307,0.28595999046228826,0.35171804251149297,268.2846484184265
1776653315.5743895,12.67457845211029,1696,128,7,model_600.pt,128,1.0,1.0,0.13714380253804848,0.11605311272433028,0.02185510344065733,0.011733512983482797,0.015199191540887114,0.010819357605214464,0.018684848257234425,0.13381727231899276,0.5706119765527546,0.650481769349426,87.150390625,0.7954906863160431,0.2815148630179465,0.3523932083044201,269.17416548728943
1776653335.5834155,13.00806221961975,1728,128,7,model_600.pt,128,1.0,1.0,0.13851565128425136,0.1157078652177006,0.02242218878791391,0.011731938437151257,0.015447376230440568,0.010903938931733137,0.018937553177589155,0.13384608452906832,0.5725390575826168,0.6517057293094695,86.9921875,0.7980682426132262,0.2795468152035028,0.35326906316913664,269.8743597269058
1776653355.602481,13.341713309288025,1792,128,8,model_700.pt,128,1.0,1.0,0.1481903142412193,0.11725935572758317,0.02018010090137068,0.012373246390779968,0.01635262525815051,0.011623902668361552,0.020094177198120566,0.13316736434353516,0.5708463508635759,0.6554687498137355,87.4375,0.7918402994982898,0.2827153103426099,0.3582199572119862,269.66716039180756
1776653375.6217887,13.675368440151214,1824,128,8,model_700.pt,128,1.0,1.0,0.15159222576767206,0.1148626982467249,0.0199926623954525,0.012953685472893994,0.01745889054291183,0.012043582690239418,0.02124085991221232,0.13298913376638666,0.5696223927661777,0.6543489582836628,87.619140625,0.7892107469961047,0.2848069779574871,0.3608197851572186,270.2653024196625
1776653395.6313434,14.008861017227172,1856,128,8,model_700.pt,128,1.0,1.0,0.15396351995877922,0.11245551914907992,0.020318585169889047,0.013533511635614559,0.018876705253205728,0.012293668572965544,0.022562852613190118,0.13262076262617484,0.568268227390945,0.6507552084513009,87.576171875,0.7882107393816113,0.28615015954710543,0.3625838372390717,272.48943996429443
1776653415.6457717,14.342434823513031,1888,128,8,model_700.pt,128,1.0,1.0,0.1506116520613432,0.10872514476068318,0.020567608063402076,0.013684386518434621,0.019974145834567025,0.012019886169582605,0.023354171237628694,0.13345405913423747,0.5691927056759596,0.6469010426662862,87.33203125,0.7919395575299859,0.2853172034956515,0.36218784819357097,275.50279569625854
1776653435.6536722,14.67589983145396,1952,128,8,model_700.pt,128,1.0,1.0,0.14470363868167624,0.1050840702955611,0.01986206829656112,0.013231739598268177,0.021632958443660755,0.011218462459510192,0.024410469503244638,0.13458195416023955,0.5723437471315265,0.6446484373882413,87.029296875,0.8010680847801268,0.28208976541645825,0.36003107530996203,280.1834964752197
1776653455.6636221,15.009398996829987,1984,128,8,model_700.pt,128,1.0,1.0,0.1402864764095284,0.1031620089779608,0.018905228847188482,0.013110897569276858,0.02123594730073819,0.01082774006499676,0.023884974664858102,0.13509588869055733,0.5747265596874058,0.6440494791604578,86.91796875,0.8044769549742341,0.2810903324279934,0.3586814049631357,282.158935546875
1776653475.690842,15.343185993035634,2016,128,8,model_700.pt,128,1.0,1.0,0.14175835059722885,0.1043176370440051,0.020890995402623957,0.013191096099035349,0.021363549727539066,0.010756652503914665,0.023966987867978427,0.1363811168121174,0.5744140609167516,0.6485546855255961,87.138671875,0.8108840915374458,0.2777761013712734,0.35941554699093103,279.79850137233734
1776653495.7017066,15.676700405279796,2080,128,9,model_800.pt,128,1.0,1.0,0.1454793371958658,0.10357961436966434,0.0191487987117398,0.013676488684723154,0.021641503037244547,0.011127421705168672,0.024390483660935033,0.13713348290184513,0.575911455322057,0.6465234351344407,87.02734375,0.825944653712213,0.26979036699049175,0.3647954280022532,281.4526946544647
1776653515.7104335,16.010179185867308,2112,128,9,model_800.pt,128,1.0,1.0,0.1478063781396486,0.10476408724207431,0.019331030272724092,0.013775726867606863,0.0224130541755585,0.011127644567750394,0.025077738815574555,0.1373544072266668,0.5770182246342301,0.6474739545956254,87.015625,0.8359063370153308,0.2638354765949771,0.36840478517115116,280.3351640701294
1776653535.7243667,16.34374473889669,2144,128,9,model_800.pt,128,1.0,1.0,0.14732069155434147,0.10301300679566339,0.018842301832364683,0.01379295185324736,0.0227073354908498,0.010999000631272793,0.025299086256415915,0.1367643603007309,0.5788541613146663,0.6456119772046804,86.990234375,0.8418512595817447,0.2598655371693894,0.36993059725500643,282.4453146457672
1776653555.7296667,16.677166406313578,2176,128,9,model_800.pt,128,1.0,1.0,0.14966646145330742,0.10362537333276123,0.021218981301672102,0.013667645493114833,0.02322951497626491,0.010869096713577164,0.025709803456744548,0.1367342957528308,0.5774088497273624,0.6508333315141499,87.48046875,0.8467683610506356,0.25625214516185224,0.3707417072728276,280.767293214798
1776653575.7383265,17.010644070307414,2240,128,9,model_800.pt,128,1.0,1.0,0.1444060084177181,0.10174680704949424,0.026778810080941184,0.013484066927048843,0.022588003943383228,0.010090520678204484,0.02480161615428956,0.13572796457447112,0.5774609339423478,0.6540624992921948,88.3984375,0.8516752771101892,0.25165063282474875,0.36595171922817826,280.92285227775574
1776653595.7514906,17.344196804364522,2272,128,9,model_800.pt,128,1.0,1.0,0.1427252305438742,0.10056639998219907,0.02608624700769724,0.013246858288766816,0.022473464930953924,0.010014352927100845,0.024658864612641558,0.13513680215692148,0.5796354138292372,0.6505598947405815,88.37109375,0.8531802105717361,0.25036414177156985,0.36386343999765813,282.8913164138794
1776653615.7635076,17.67773042122523,2304,128,10,model_900.pt,128,1.0,1.0,0.13517420191783458,0.09942701348336414,0.02291237148347136,0.013072987101622857,0.02132611493289005,0.00956033179681981,0.023424789194544188,0.13414830714464188,0.5830729133449495,0.648229165468365,88.072265625,0.8547384534031153,0.24892092461232096,0.3590690647251904,285.5155255794525
1776653635.7709699,18.011188125610353,2336,128,10,model_900.pt,128,1.0,1.0,0.14029279025271535,0.10086074558785185,0.020985712433684967,0.012717337522190064,0.022190209921973292,0.00989728040076443,0.024349145030497617,0.13427462137769908,0.582434892654419,0.6476562493480742,87.77734375,0.857463653665036,0.24723426648415625,0.361527077620849,284.81049513816833
1776653655.8150005,18.345255303382874,2400,128,10,model_900.pt,128,1.0,1.0,0.1432431733701378,0.10128915339009836,0.021031307858947912,0.01282274956611218,0.0227873572948738,0.009988830035581486,0.02492794625259232,0.13463481096550822,0.5812369748018682,0.64808593923226,87.5546875,0.8614211422391236,0.2439448666991666,0.36245737597346306,284.31017875671387
1776653675.8392727,18.678993173440297,2432,128,10,model_900.pt,128,1.0,1.0,0.14421384857269004,0.1004534344538115,0.021681753091343126,0.012899195113277528,0.023164640449977014,0.010014222767495085,0.025290296497926724,0.1355522708618082,0.5815624971874058,0.6456510429270566,87.326171875,0.8620812259614468,0.24351771967485547,0.3626766714733094,284.89514803886414
1776653695.846364,19.012444694836933,2464,128,10,model_900.pt,128,1.0,1.0,0.1402300142799504,0.09917709120782092,0.02200302161008949,0.013018523175560404,0.022730032345862128,0.010147733060875908,0.024956702620829163,0.13583255239063874,0.5834895819425583,0.6425130222924054,87.228515625,0.8643105360679328,0.24171388626564294,0.3599377954378724,286.37543845176697
1776653715.8587396,19.34598428805669,2496,128,10,model_900.pt,128,1.0,1.0,0.1339500710600987,0.09738817333709449,0.018353752129996792,0.01302259264048189,0.022011087457940448,0.01024770849471679,0.0243482193618854,0.13656182814156637,0.5850260397419333,0.6366536449640989,86.94140625,0.8648750497959554,0.24109251564368606,0.35604395042173564,290.01161563396454
1776653735.872558,19.679547929763793,2560,128,11,model_900.pt,128,1.0,1.0,0.1305034655961208,0.09502683073515072,0.014474325137598498,0.012471802801883314,0.02175434418313671,0.010384451732534217,0.024165275478558835,0.13628827210050076,0.5880729146301746,0.6266796896234155,86.6640625,0.8675973038189113,0.2390143380034715,0.35365993180312216,294.32214987277985
1776653755.8894937,20.01316352287928,2592,128,11,model_900.pt,128,1.0,1.0,0.1352570215240121,0.09571724373381585,0.014160399732645601,0.012152560644608457,0.022269413770118263,0.010289059668139089,0.024582050432450223,0.1361725719179958,0.5884765610098839,0.6261718771420419,86.751953125,0.8693583733402193,0.23797609971370548,0.3558777319267392,293.98892199993134
1776653775.8975062,20.346630398432414,2624,128,11,model_900.pt,128,1.0,1.0,0.14308114966843277,0.09706470993114635,0.014583457677872502,0.011622167774476111,0.022990879682765808,0.010224335237580817,0.025201436233322036,0.13557475537527353,0.587565103545785,0.6295182327739894,86.90625,0.8722149771638215,0.23616672167554498,0.35957805276848376,292.151296377182
1776653795.9119275,20.680204085508983,2688,128,11,model_900.pt,128,1.0,1.0,0.14842938882065937,0.09704330092063174,0.015456298737717589,0.011525849447934888,0.023583281530591194,0.010551887982728658,0.025871929781221308,0.13746341393562034,0.5878776023164392,0.6352734388783574,87.033203125,0.8770264470949769,0.2323303302982822,0.3612513637635857,290.8994722366333
1776653815.9247248,21.01375070810318,2720,128,11,model_900.pt,128,1.0,1.0,0.14463538059499115,0.09545072418404743,0.01411066466016564,0.011367913924914319,0.023151687972131185,0.010486483719432727,0.025453830122704364,0.13750656734919176,0.5892578102648258,0.6344401044771075,86.87109375,0.8767113271169364,0.23244893946684897,0.35834763175807893,292.9435558319092
1776653835.9336855,21.347233386834464,2752,128,11,model_900.pt,128,1.0,1.0,0.14103156491182745,0.09629573754500598,0.013524691959673873,0.011414477725338656,0.023001913017651532,0.01034289457675186,0.02526145450061942,0.1379883571062237,0.590364582836628,0.6341406255960464,86.705078125,0.8775772275403142,0.2321830732980743,0.3561150818131864,292.77758407592773
1776653855.9413326,21.680694170792897,2816,128,12,model_900.pt,128,1.0,1.0,0.13874614640371874,0.09985444432822987,0.012495126071144114,0.011221464068512432,0.022767365313484333,0.009546691737341462,0.02473456614597782,0.13642133271787316,0.5942187518812716,0.6305989581160247,86.57421875,0.8772036992013454,0.2332089375704527,0.35398365883156657,291.44419968128204
1776653875.9468853,22.01412005027135,2848,128,12,model_900.pt,128,1.0,1.0,0.14062564086634666,0.10216022277018055,0.013217392813885454,0.01140730973565951,0.023010816490568686,0.009494995771092363,0.02493622079125028,0.13630664814263582,0.595937502104789,0.6308203120715916,86.5,0.877702406141907,0.23296972655225545,0.3553994984831661,290.1461203098297
1776653895.9587607,22.347651306788126,2880,128,12,model_900.pt,128,1.0,1.0,0.14156935282517225,0.10204253706615418,0.013160946753032476,0.01154711950221099,0.022896479415067006,0.009440230438485742,0.0248089941254273,0.13598869752604514,0.5977343744598329,0.6280468753539026,86.369140625,0.8760498664341867,0.2337562699103728,0.35541091742925346,291.1454710960388
1776653915.9697344,22.681167534987132,2944,128,12,model_900.pt,128,1.0,1.0,0.14074803900439292,0.100005287444219,0.013242642179420727,0.011504423535370734,0.022435150916862767,0.009735874329635408,0.024492066653441027,0.13590092107187957,0.5960026024840772,0.6275130202993751,86.0390625,0.8759818584658206,0.2333433001767844,0.3553336295299232,293.9635570049286
1776653935.979078,23.01465659538905,2976,128,12,model_900.pt,128,1.0,1.0,0.13752769015263766,0.0975406116922386,0.012931625814417202,0.011291856462776195,0.021921504216152243,0.009717304496007273,0.024011751992405725,0.13547516491962597,0.5962890619412065,0.627278646454215,86.166015625,0.876717806328088,0.2322123816702515,0.3529785538557917,296.1916561126709
1776653955.9952834,23.348260017236075,3040,128,12,model_900.pt,128,1.0,1.0,0.13678054395131767,0.0972910217824392,0.014067556806367065,0.010883277682296466,0.02178110328532057,0.00996826724804123,0.02398412332400738,0.1352024720981717,0.5964192729443312,0.6355729158967733,86.748046875,0.8814874524250627,0.22806067555211484,0.35160681675188243,295.9060767889023
1776653976.008236,23.681809226671856,3072,128,13,model_900.pt,128,1.0,1.0,0.1366069206269458,0.09739873127546161,0.013325667266371966,0.010909187047218438,0.0217501224251464,0.01011296798606054,0.024018495049675417,0.13508267560973763,0.5970963570289314,0.6363020851276815,86.748046875,0.8830528133548796,0.22683352592866868,0.3516203318722546,296.12503123283386
1776653996.0156288,24.015265774726867,3104,128,13,model_900.pt,128,1.0,1.0,0.13598766748327762,0.0971433770027943,0.012619348480257031,0.010884091905609239,0.021759998140623793,0.010307557608030038,0.02411653677488195,0.1348014646791853,0.5958203147165477,0.637604168150574,86.654296875,0.8841784563846886,0.22600555699318647,0.351430585142225,296.29634714126587
1776654016.0230021,24.348721996943155,3168,128,13,model_900.pt,128,1.0,1.0,0.1394741568947211,0.09733253781450912,0.011079372081667316,0.010680820087145548,0.02222585864365101,0.010614442413498182,0.02466287170856183,0.13583450322039425,0.5938671897165477,0.6384895863011479,86.298828125,0.8852029154077172,0.2251297126058489,0.3534837656188756,295.98402976989746
1776654036.034924,24.682254028320312,3200,128,13,model_900.pt,128,1.0,1.0,0.14121542230714113,0.09646226599579677,0.011028245644638446,0.01042846675409237,0.022273017217230517,0.010641949251294136,0.024715696864770133,0.13573796552373096,0.5926302107982337,0.6441666684113443,86.435546875,0.8849968696013093,0.22487780125811696,0.3538338514044881,295.8702073097229
1776654056.044333,25.015744177500405,3264,128,13,model_900.pt,128,1.0,1.0,0.14597709092777222,0.09767572249984369,0.012600333386671991,0.010173346490773838,0.02241530507308198,0.010047230920463335,0.024592724176062085,0.13749287236714736,0.592825522646308,0.6490494799800217,86.615234375,0.8842894267290831,0.224917387124151,0.35402677254751325,294.10283851623535
1776654076.0530019,25.349221992492676,3296,128,13,model_900.pt,128,1.0,1.0,0.143097534251865,0.09678576420992613,0.012754237133094648,0.010192455571086612,0.022146718685689848,0.009759247735928511,0.0242331650465252,0.1367231755866669,0.5945312492549419,0.6512500001117587,86.8671875,0.8841810654848814,0.2247756051365286,0.3522151520010084,295.1291128396988
1776654096.0683863,25.682811733086904,3328,128,14,model_900.pt,128,1.0,1.0,0.13980093761347234,0.09585069090826437,0.012237051207421246,0.010267210011079442,0.021907427602855023,0.009465811868722085,0.023893617197146215,0.1370416639256291,0.5953906234353781,0.6497786464169621,86.767578125,0.8844585218466818,0.22456736490130424,0.3502121695782989,296.6709758043289
1776654116.0788822,26.016319998105367,3392,128,14,model_900.pt,128,1.0,1.0,0.14351403387263417,0.10020258760778233,0.009908979263400397,0.010224997367913602,0.022546696352947038,0.009481257053266745,0.024489491267925743,0.1362071349285543,0.5944010382518172,0.654427086468786,86.78515625,0.8888155962340534,0.22045341331977397,0.3533463687635958,293.93147563934326
1776654136.0889628,26.34982134103775,3424,128,14,model_900.pt,128,1.0,1.0,0.1469484490226023,0.10184080398175865,0.009769355813659786,0.01023819754118449,0.022924765835341532,0.009606571100448491,0.024886991614005115,0.13653170393081382,0.594270832836628,0.6546614617109299,86.7421875,0.8905356954783201,0.21896520908921957,0.35570975416339934,292.7959667444229
1776654156.096122,26.683273994922637,3456,128,14,model_900.pt,128,1.0,1.0,0.1479288250557147,0.10352696047630161,0.009481046979090024,0.010341775549022714,0.023020944354357198,0.00954993622508482,0.02495189724196324,0.13635074091143906,0.5943880211561918,0.6556119811721146,86.841796875,0.8916539112105966,0.2175324026029557,0.35688649537041783,291.7460570335388
1776654176.1035156,27.01673055489858,3520,128,14,model_900.pt,128,1.0,1.0,0.14347382925916463,0.09904394077602774,0.01052929883780962,0.010678042264771648,0.022161957786011044,0.009532770280202385,0.024154123494525934,0.1364315521204844,0.5906119761057198,0.6557812509126961,86.853515625,0.8915223604999483,0.21711671072989702,0.35552697349339724,294.4229625463486
1776654196.109403,27.350162009398144,3552,128,14,model_900.pt,128,1.0,1.0,0.14101863832911476,0.09702387033030391,0.011552262627446908,0.010714512714912416,0.02170306986226933,0.00915668345260201,0.023584951871328426,0.1365121381240897,0.5901692663319409,0.6554947919212282,86.896484375,0.890227819327265,0.21735421265475452,0.3535517957061529,296.1390005350113
1776654216.1174648,27.68362970749537,3616,128,15,model_900.pt,128,1.0,1.0,0.14363332773791626,0.09952716052066535,0.012356402213754336,0.010643121982866433,0.022299250260402914,0.009223880962963449,0.024170302641459477,0.13697756361216307,0.587513015139848,0.6551171876490116,86.599609375,0.8920605145394802,0.21708457358181477,0.3564763378817588,293.7363541126251
1776654236.1326573,28.017216249306998,3648,128,15,model_900.pt,128,1.0,1.0,0.14676814334234223,0.10147159290499985,0.013066742588762281,0.010582912658719579,0.023043975903419778,0.009421107159141684,0.0249326422980189,0.13661314698401839,0.5900260400958359,0.6558203129097819,86.57421875,0.892629599198699,0.21674064500257373,0.35981212952174246,292.6497230529785
1776654256.1460176,28.350772253672282,3680,128,15,model_900.pt,128,1.0,1.0,0.14843103376915678,0.10323748871451244,0.011599147390825237,0.010521025826164987,0.023510595441621263,0.009682091327704256,0.025462734601403123,0.13600887497887015,0.5898046856746078,0.6564062517136335,86.287109375,0.8941576262004673,0.21604304597713053,0.362193081760779,291.5267667770386
1776654276.1563318,28.68427749077479,3744,128,15,model_900.pt,128,1.0,1.0,0.1436334457830526,0.10016782890306786,0.010022593418852921,0.010402490424894495,0.023116167933039833,0.009630960597860394,0.025082824635504746,0.1351298755616881,0.5905468738637865,0.6524218763224781,86.24609375,0.8943816623650491,0.21534581494051963,0.35981114651076496,294.78325152397156
1776654296.1673787,29.017794938882194,3776,128,15,model_900.pt,128,1.0,1.0,0.1443726773140952,0.10051692236447707,0.009191479806304415,0.010322817171982024,0.023303821806621272,0.009804377808904974,0.025325251137402957,0.13489963370375335,0.5900911432690918,0.6505078133195639,86.142578125,0.8946347781457007,0.21514522738289088,0.36033708695322275,295.13447165489197
1776654316.1749616,29.351254653930663,3840,128,15,model_900.pt,128,1.0,1.0,0.14937306375941262,0.10310944385128096,0.011162168606688283,0.010233430046355352,0.02407512417266844,0.009949316572601674,0.02609390335257486,0.1355871213017963,0.5886458307504654,0.6474479157477617,86.154296875,0.8955545690841973,0.21470021398272365,0.3641891158185899,293.0282759666443
