env_id,success,done_reason_code,done_reason,duration_sec,survival_ratio,v_cmd_mean,v_fwd_mean,v_fwd_rmse,yaw_drift_abs_final,yaw_rate_abs_mean,roll_rms,pitch_rms,tilt_rms,vertical_bounce_rms,base_z_min,contact_continuity_score,diag_support_asym_score,swing_scuff_count,residual_rms,residual_rate_rms,joint_vel_rms,return_total,completed_episode_index,completed_wall_time_s
0,1,1,timeout,10.0,1.0,0.183730348944664,0.0967816412448883,0.19665281474590302,0.019209496676921844,0.03629559651017189,0.01901043765246868,0.012030079960823059,0.0224971012266513,0.13840489089488983,0.8708102107048035,0.42500001192092896,0.7616666555404663,86.0,0.45798903703689575,0.357353150844574,0.4644301235675812,183.7031707763672,0,1776652569.8623302
1,1,1,timeout,10.0,1.0,0.1706184446811676,0.13035549223423004,0.18827781081199646,0.012262791395187378,0.024700192734599113,0.016057174652814865,0.01448205765336752,0.02162320169878783,0.13595153391361237,0.8736017346382141,0.4466666579246521,0.7599999904632568,89.25,0.46581408381462097,0.35572370886802673,0.4726719856262207,193.30007934570312,1,1776652569.8623302
2,1,1,timeout,10.0,1.0,0.18742986023426056,0.10966986417770386,0.2424769550561905,0.017195377498865128,0.029047679156064987,0.015579001046717167,0.01149605680257082,0.019361420289367964,0.13785360753536224,0.8721577525138855,0.4166666567325592,0.7416666746139526,87.75,0.44905704259872437,0.35465118288993835,0.4589724540710449,164.0621795654297,2,1776652569.8623302
3,1,1,timeout,10.0,1.0,0.11901943385601044,0.10773732513189316,0.19562923908233643,0.08043500781059265,0.03061567060649395,0.02258804254233837,0.01848783530294895,0.02918937683616171,0.13330885767936707,0.8688985705375671,0.43166667222976685,0.6966666579246521,83.75,0.4534150958061218,0.3534711003303528,0.44791290163993835,157.91770935058594,3,1776652569.8623302
4,1,1,timeout,10.0,1.0,0.21671442687511444,0.11082936823368073,0.20821727812290192,0.029026146978139877,0.02887313812971115,0.01652883179485798,0.011709019541740417,0.020255947747058568,0.1373514086008072,0.8666496872901917,0.43833333253860474,0.7300000190734863,85.25,0.4624754786491394,0.3572724163532257,0.46069127321243286,182.5431671142578,4,1776652569.8623302
5,1,1,timeout,10.0,1.0,0.17771713435649872,0.08731832355260849,0.20737583935260773,0.06319062411785126,0.033463004976511,0.014771108515560627,0.012945743277668953,0.01964122999686574,0.13725829124450684,0.8682194352149963,0.4333333373069763,0.7400000095367432,87.0,0.4675588607788086,0.3583199977874756,0.44760167598724365,177.2007293701172,5,1776652569.8623302
6,1,1,timeout,10.0,1.0,0.1867407113313675,0.10990572720766068,0.22086656093597412,0.02443617582321167,0.02675577439367771,0.0201158095151186,0.012514196336269379,0.02369073452620737,0.1319987028837204,0.870162308216095,0.44999998807907104,0.75,87.5,0.45072808861732483,0.3541015386581421,0.4536014795303345,162.52145385742188,6,1776652569.8623302
7,1,1,timeout,10.0,1.0,0.17515712976455688,0.12806189060211182,0.18316136300563812,0.03194861486554146,0.025418030098080635,0.015616060234606266,0.014802743680775166,0.021517029482007507,0.13802175223827362,0.8695901036262512,0.4449999928474426,0.7649999856948853,88.25,0.45413902401924133,0.3571881055831909,0.4589623212814331,173.3864288330078,7,1776652569.8623302
8,1,1,timeout,10.0,1.0,0.1511951982975006,0.09306848794221878,0.23780585825443268,0.014078028500080109,0.028715142980217934,0.018640972673892975,0.018887203186750412,0.026536998821389345,0.14111293852329254,0.8716767430305481,0.4283333420753479,0.7350000143051147,86.0,0.466415137052536,0.3541020452976227,0.46318382024765015,170.64193725585938,8,1776652569.8623302
9,1,1,timeout,10.0,1.0,0.1285777986049652,0.0938439592719078,0.15312793850898743,0.06225791946053505,0.0229753740131855,0.013189989142119884,0.012315716594457626,0.018045849628217547,0.13519936800003052,0.8735134601593018,0.46166667342185974,0.75,91.0,0.45380935072898865,0.3522661626338959,0.4485318958759308,198.6509246826172,9,1776652569.8623302
10,1,1,timeout,10.0,1.0,0.18470218777656555,0.12217593193054199,0.20385600626468658,0.015320416539907455,0.023326575756072998,0.022064408287405968,0.022296588867902756,0.03136839154654944,0.14510075747966766,0.8751118779182434,0.4283333420753479,0.7383333444595337,85.25,0.4549603760242462,0.3569191098213196,0.4709395170211792,188.78236389160156,10,1776652569.8623302
11,1,1,timeout,10.0,1.0,0.14708445966243744,0.11240188777446747,0.2225770503282547,0.0325390100479126,0.03049313835799694,0.01653297431766987,0.017472615465521812,0.02405476108787455,0.14550648629665375,0.8644672632217407,0.43166667222976685,0.7383333444595337,87.5,0.46821916103363037,0.3526693880558014,0.4631204903125763,157.61917114257812,11,1776652569.8623302
12,1,1,timeout,10.0,1.0,0.18079514801502228,0.08616597205400467,0.22166694700717926,0.0367819219827652,0.03171021118760109,0.01687869243323803,0.012495474889874458,0.02100064644193911,0.1356661021709442,0.8698282837867737,0.4449999928474426,0.7266666889190674,87.25,0.46332770586013794,0.35593265295028687,0.466488778591156,148.98031616210938,12,1776652569.8623302
13,1,1,timeout,10.0,1.0,0.20793837308883667,0.06527633219957352,0.22073999047279358,0.00952143594622612,0.03294586390256882,0.013894706964492798,0.014345002360641956,0.019971028375022352,0.14085887372493744,0.8715831637382507,0.4350000023841858,0.7316666841506958,85.0,0.45674389600753784,0.3577677011489868,0.44057697057724,164.9385223388672,13,1776652569.8623302
14,1,1,timeout,10.0,1.0,0.21952183544635773,0.11861009150743484,0.18560263514518738,0.017794042825698853,0.027642371132969856,0.014919571578502655,0.009292319416999817,0.017576712327213414,0.14304082095623016,0.8708665370941162,0.4650000035762787,0.7900000214576721,90.5,0.45838794112205505,0.3544580340385437,0.4605250060558319,184.99273681640625,14,1776652569.8623302
15,1,1,timeout,10.0,1.0,0.11497329920530319,0.11742435395717621,0.20385988056659698,0.023630470037460327,0.024155044928193092,0.015036994591355324,0.013948902487754822,0.020510560376385184,0.1407458335161209,0.8669934868812561,0.4350000023841858,0.746666669845581,88.5,0.46911096572875977,0.3552476465702057,0.45022299885749817,170.12594604492188,15,1776652569.8623302
16,1,1,timeout,10.0,1.0,0.14266832172870636,0.09266692399978638,0.1650678962469101,0.004952069837599993,0.028713203966617584,0.01784825511276722,0.01273786835372448,0.02192745997071336,0.14088094234466553,0.8663956522941589,0.4333333373069763,0.7433333396911621,85.0,0.4585270881652832,0.3535234034061432,0.45194143056869507,195.33114624023438,16,1776652569.8623302
17,1,1,timeout,10.0,1.0,0.1689729392528534,0.08298914134502411,0.19187213480472565,0.01726793311536312,0.024215564131736755,0.01637151464819908,0.012742367573082447,0.020745949562354097,0.13530069589614868,0.8728415369987488,0.4650000035762787,0.7549999952316284,90.5,0.4420712888240814,0.3548642694950104,0.4501611590385437,195.9002227783203,17,1776652569.8623302
18,1,1,timeout,10.0,1.0,0.14383761584758759,0.10451815277338028,0.23836567997932434,0.011010732501745224,0.02693108841776848,0.014888915233314037,0.013908439315855503,0.02037460382504764,0.1457788646221161,0.8665181994438171,0.45500001311302185,0.7616666555404663,88.5,0.46052446961402893,0.35371872782707214,0.4477793574333191,161.44139099121094,18,1776652569.8623302
19,1,1,timeout,10.0,1.0,0.15656651556491852,0.10320623964071274,0.20182888209819794,0.04384199529886246,0.027789195999503136,0.01800565980374813,0.012773910537362099,0.02207660697174368,0.14379554986953735,0.8703690767288208,0.46166667342185974,0.7749999761581421,89.75,0.45612862706184387,0.3547055423259735,0.453964501619339,170.88079833984375,19,1776652569.8623302
20,1,1,timeout,10.0,1.0,0.15325003862380981,0.10346811264753342,0.23415027558803558,0.003130882978439331,0.029773671180009842,0.02052927576005459,0.015855276957154274,0.025939178295012202,0.13821941614151,0.8703774809837341,0.4533333480358124,0.75,88.75,0.46462684869766235,0.3540007770061493,0.4519463777542114,180.90802001953125,20,1776652569.8623302
21,1,1,timeout,10.0,1.0,0.12622244656085968,0.09347198158502579,0.200834721326828,0.02087300643324852,0.026176458224654198,0.018330175429582596,0.016986198723316193,0.02499052377096691,0.14403489232063293,0.8695809245109558,0.44999998807907104,0.7266666889190674,88.5,0.4449523091316223,0.3577629327774048,0.447113960981369,174.35765075683594,21,1776652569.8623302
22,1,1,timeout,10.0,1.0,0.183368518948555,0.11718075722455978,0.18256507813930511,0.051808979362249374,0.028576117008924484,0.020093390718102455,0.01907714270055294,0.027707069931113,0.14252063632011414,0.8726590871810913,0.4099999964237213,0.7250000238418579,85.0,0.44801920652389526,0.3585817813873291,0.45657089352607727,176.39585876464844,22,1776652569.8623302
23,1,1,timeout,10.0,1.0,0.18204711377620697,0.06305115669965744,0.1923075169324875,0.07764953374862671,0.026510531082749367,0.01643533445894718,0.0128610385581851,0.020869272425568183,0.13836027681827545,0.8740823268890381,0.42500001192092896,0.7416666746139526,83.5,0.4613867998123169,0.35278967022895813,0.4538184404373169,161.89404296875,23,1776652569.8623302
24,1,1,timeout,10.0,1.0,0.17974597215652466,0.11022664606571198,0.22357404232025146,0.0032927021384239197,0.030061479657888412,0.0193113274872303,0.018497519195079803,0.0267410842280451,0.14180321991443634,0.8630205988883972,0.44999998807907104,0.7183333039283752,86.25,0.47770917415618896,0.3523971140384674,0.46748578548431396,163.26788330078125,24,1776652569.8623302
25,1,1,timeout,10.0,1.0,0.11864522099494934,0.11193232238292694,0.19705034792423248,0.08699225634336472,0.027987442910671234,0.0178985558450222,0.01576228253543377,0.023849692913415443,0.14475367963314056,0.8688571453094482,0.4516666531562805,0.7250000238418579,86.75,0.46518754959106445,0.3550291061401367,0.4650212526321411,168.53436279296875,25,1776652569.8623302
26,1,1,timeout,10.0,1.0,0.09102831780910492,0.12688858807086945,0.20889326930046082,0.004562174901366234,0.024253174662590027,0.014582494273781776,0.011051127687096596,0.018296900349550775,0.1327294558286667,0.873892068862915,0.44999998807907104,0.7666666507720947,89.25,0.4647773206233978,0.3550257086753845,0.46632206439971924,163.9905548095703,26,1776652569.8623302
27,1,1,timeout,10.0,1.0,0.18918414413928986,0.10277533531188965,0.19668155908584595,0.026598311960697174,0.02600719965994358,0.01746045984327793,0.013442469760775566,0.022035599633504117,0.13531635701656342,0.8704445958137512,0.48500001430511475,0.7416666746139526,89.5,0.46584948897361755,0.3559143841266632,0.45599088072776794,180.34352111816406,27,1776652569.8623302
28,1,1,timeout,10.0,1.0,0.18688252568244934,0.09637539833784103,0.19968459010124207,0.027654627338051796,0.02287955954670906,0.014392064884305,0.01142379641532898,0.018374837582219014,0.13522480428218842,0.8698148131370544,0.44999998807907104,0.7649999856948853,90.0,0.46068063378334045,0.3547821044921875,0.45354756712913513,184.88182067871094,28,1776652569.8623302
29,1,1,timeout,10.0,1.0,0.16617655754089355,0.11292984336614609,0.18721596896648407,0.026462046429514885,0.023098085075616837,0.018379278481006622,0.013862856663763523,0.023021222216955507,0.14305636286735535,0.8650557398796082,0.46666666865348816,0.7433333396911621,87.5,0.466060608625412,0.3558841347694397,0.4519117772579193,185.7571258544922,29,1776652569.8623302
30,1,1,timeout,10.0,1.0,0.1841549277305603,0.07654497772455215,0.2244979739189148,0.06300555169582367,0.026791594922542572,0.01794242113828659,0.015138745307922363,0.02347577657505231,0.1488022655248642,0.8676407933235168,0.43833333253860474,0.7383333444595337,88.0,0.4591394066810608,0.3530657887458801,0.4601946473121643,166.43222045898438,30,1776652569.8623302
31,1,1,timeout,10.0,1.0,0.15827810764312744,0.1089727133512497,0.18264639377593994,0.027673548087477684,0.027192551642656326,0.01590678095817566,0.01171262376010418,0.019753765104332306,0.14063559472560883,0.8702183961868286,0.4516666531562805,0.7183333039283752,85.75,0.4683142602443695,0.3526712954044342,0.4610261917114258,198.65182495117188,31,1776652569.8623302
0,1,1,timeout,10.0,1.0,0.19415639340877533,0.1474132388830185,0.2077270895242691,0.03934822231531143,0.033332981169223785,0.021408002823591232,0.016619568690657616,0.02710189381497863,0.13893364369869232,0.8664286136627197,0.4583333432674408,0.7300000190734863,88.0,0.47788894176483154,0.353952556848526,0.46342962980270386,174.3157196044922,32,1776652583.0164366
1,1,1,timeout,10.0,1.0,0.2092597633600235,0.1241355612874031,0.18825899064540863,0.00390813872218132,0.029720325022935867,0.01380674447864294,0.009520751424133778,0.016771132960497412,0.1355443149805069,0.8584039211273193,0.43833333253860474,0.7599999904632568,89.0,0.5086427330970764,0.35328683257102966,0.4594728946685791,185.0898895263672,33,1776652583.0164366
2,1,1,timeout,10.0,1.0,0.2615121603012085,0.13641542196273804,0.2068835347890854,0.08080756664276123,0.029211677610874176,0.017644762992858887,0.013763833791017532,0.022378131774143224,0.14072000980377197,0.8646368384361267,0.46833333373069763,0.7716666460037231,88.25,0.49839577078819275,0.3546345829963684,0.44713643193244934,165.2608184814453,34,1776652583.0164366
3,1,1,timeout,10.0,1.0,0.2916282117366791,0.14452236890792847,0.2416647970676422,0.017357278615236282,0.027379782870411873,0.018705323338508606,0.01693243347108364,0.025230862538780326,0.14109140634536743,0.867222249507904,0.43666666746139526,0.7350000143051147,87.75,0.4812391996383667,0.355654776096344,0.4612908363342285,159.55030822753906,35,1776652583.0164366
4,1,1,timeout,10.0,1.0,0.2562529742717743,0.12821465730667114,0.20753085613250732,0.014261264353990555,0.02427019737660885,0.015308763831853867,0.010182486847043037,0.018385899174358636,0.13477356731891632,0.8655152320861816,0.4633333384990692,0.7433333396911621,88.25,0.4939192831516266,0.35471054911613464,0.4629082679748535,186.49354553222656,36,1776652583.0164366
5,1,1,timeout,10.0,1.0,0.2399529218673706,0.12319492548704147,0.19865699112415314,0.0026699863374233246,0.023326326161623,0.015552839264273643,0.012285375967621803,0.01981971926759184,0.13695785403251648,0.868827223777771,0.4650000035762787,0.8016666769981384,92.25,0.47364720702171326,0.3542605936527252,0.4612395167350769,180.31976318359375,37,1776652583.0164366
6,1,1,timeout,10.0,1.0,0.2858908176422119,0.1257571578025818,0.2416159212589264,0.012678900733590126,0.02116256393492222,0.013615538366138935,0.014502184465527534,0.019892115002482502,0.15251876413822174,0.8668490052223206,0.4633333384990692,0.7300000190734863,87.0,0.4713917374610901,0.3533322513103485,0.45137104392051697,172.60934448242188,38,1776652583.0164366
7,1,1,timeout,10.0,1.0,0.24885541200637817,0.14325198531150818,0.19647473096847534,0.03162408247590065,0.02356225810945034,0.01788214035332203,0.009392162784934044,0.020198605530942184,0.1481371372938156,0.8670223951339722,0.4633333384990692,0.7933333516120911,93.5,0.5043966174125671,0.35267922282218933,0.4561883807182312,168.1754913330078,39,1776652583.0164366
8,1,1,timeout,10.0,1.0,0.17546170949935913,0.14038367569446564,0.1759868860244751,0.006252838298678398,0.02046704664826393,0.016043929383158684,0.014511398039758205,0.02163303823137381,0.1378210037946701,0.8592916131019592,0.46666666865348816,0.7950000166893005,91.0,0.48802846670150757,0.35630571842193604,0.45800456404685974,192.80621337890625,40,1776652583.0164366
9,1,1,timeout,10.0,1.0,0.10772740840911865,0.1406191736459732,0.17524172365665436,0.05262517184019089,0.028282614424824715,0.016887925565242767,0.011315473355352879,0.020328353773802765,0.13601385056972504,0.8638667464256287,0.4633333384990692,0.7933333516120911,91.5,0.5001822113990784,0.34924930334091187,0.4680565893650055,180.26968383789062,41,1776652583.0164366
10,1,1,timeout,10.0,1.0,0.13507841527462006,0.12175176292657852,0.1651623398065567,0.0066653285175561905,0.022382766008377075,0.019232185557484627,0.013756840489804745,0.02364587958988736,0.13348069787025452,0.865441620349884,0.4566666781902313,0.7316666841506958,89.0,0.4948320686817169,0.35383811593055725,0.44212767481803894,196.3600311279297,42,1776652583.0164366
11,1,1,timeout,10.0,1.0,0.14367809891700745,0.15648601949214935,0.18620847165584564,0.0021499181166291237,0.02234700322151184,0.014599932357668877,0.010909143835306168,0.01822546142263359,0.13589529693126678,0.8628289103507996,0.4650000035762787,0.7666666507720947,89.0,0.5039870142936707,0.35438066720962524,0.45667147636413574,196.9882049560547,43,1776652583.0164366
12,1,1,timeout,10.0,1.0,0.05077623203396797,0.13904964923858643,0.19035731256008148,0.006849760189652443,0.02597866766154766,0.01350264810025692,0.008530087769031525,0.0159713463135314,0.14181214570999146,0.8663485646247864,0.46666666865348816,0.778333306312561,88.5,0.4914364516735077,0.3544290065765381,0.46013975143432617,171.7916717529297,44,1776652583.0164366
13,1,1,timeout,10.0,1.0,0.10559654980897903,0.13450422883033752,0.17378248274326324,0.03737149015069008,0.022562893107533455,0.016331542283296585,0.017301613464951515,0.023792122684655435,0.13971152901649475,0.8694482445716858,0.4466666579246521,0.753333330154419,87.25,0.4797036647796631,0.3507078289985657,0.44039273262023926,190.0313720703125,45,1776652583.0164366
14,1,1,timeout,10.0,1.0,0.13402815163135529,0.12259171903133392,0.1888342946767807,0.005356727167963982,0.02890433929860592,0.017628395929932594,0.014283841475844383,0.02268895040255314,0.13693810999393463,0.8689271211624146,0.4466666579246521,0.7200000286102295,86.75,0.48057281970977783,0.3543730676174164,0.45135363936424255,198.52919006347656,46,1776652583.0164366
15,1,1,timeout,10.0,1.0,0.1428760290145874,0.1211286261677742,0.171905517578125,0.012988107278943062,0.03078256919980049,0.016028402373194695,0.013948031701147556,0.021247523878637025,0.13832609355449677,0.8682755827903748,0.4166666567325592,0.7450000047683716,88.25,0.47693875432014465,0.35348135232925415,0.45386266708374023,193.0310821533203,47,1776652583.0164366
16,1,1,timeout,10.0,1.0,0.22022323310375214,0.1283806413412094,0.1857328563928604,0.037887804210186005,0.024039944633841515,0.014079599641263485,0.009112120606005192,0.01677098291683142,0.13988101482391357,0.8667846918106079,0.46833333373069763,0.7649999856948853,90.25,0.4969536364078522,0.3532784879207611,0.4511171579360962,180.71783447265625,48,1776652583.0164366
17,1,1,timeout,10.0,1.0,0.1699371635913849,0.12014219909906387,0.16305504739284515,0.018334360793232918,0.023100310936570168,0.01758507639169693,0.01720220223069191,0.024599810431941104,0.14209683239459991,0.866319477558136,0.4749999940395355,0.7516666650772095,91.25,0.47266700863838196,0.3556218445301056,0.44725915789604187,201.44471740722656,49,1776652583.0164366
18,1,1,timeout,10.0,1.0,0.24059359729290009,0.12595921754837036,0.21184682846069336,0.02510601468384266,0.029726892709732056,0.016554106026887894,0.013350578024983406,0.021266790071626133,0.13802194595336914,0.8601542115211487,0.4533333480358124,0.7383333444595337,87.25,0.48865973949432373,0.35521289706230164,0.44135764241218567,164.05093383789062,50,1776652583.0164366
19,1,1,timeout,10.0,1.0,0.0879092589020729,0.1472429484128952,0.18004931509494781,0.017799148336052895,0.024381961673498154,0.017916059121489525,0.012938953004777431,0.022099811748169867,0.14900708198547363,0.8645382523536682,0.4533333480358124,0.7916666865348816,89.25,0.49553143978118896,0.35324761271476746,0.45799025893211365,180.49620056152344,51,1776652583.0164366
20,1,1,timeout,10.0,1.0,0.16952919960021973,0.14868518710136414,0.18734365701675415,0.018964063376188278,0.023585470393300056,0.015885017812252045,0.01623603142797947,0.02271436786322485,0.13670611381530762,0.8714299201965332,0.47833332419395447,0.7549999952316284,89.5,0.49212732911109924,0.3496961295604706,0.4642523527145386,188.51390075683594,52,1776652583.0164366
21,1,1,timeout,10.0,1.0,0.1285095065832138,0.14943595230579376,0.17766059935092926,0.008452262729406357,0.021361159160733223,0.014839873649179935,0.012514032423496246,0.019411925649454265,0.13607357442378998,0.864248514175415,0.46000000834465027,0.7566666603088379,88.0,0.4890010356903076,0.34823164343833923,0.46528851985931396,187.03968811035156,53,1776652583.0164366
22,1,1,timeout,10.0,1.0,0.26281434297561646,0.12544870376586914,0.22505807876586914,0.07095807045698166,0.023049140349030495,0.015055365860462189,0.009246566332876682,0.01766813601206021,0.14454026520252228,0.864944338798523,0.4583333432674408,0.7683333158493042,89.0,0.4938037097454071,0.3506539762020111,0.4490707516670227,159.30613708496094,54,1776652583.0164366
23,1,1,timeout,10.0,1.0,0.18247216939926147,0.14268966019153595,0.18629521131515503,0.0187857523560524,0.023619841784238815,0.017181815579533577,0.012152285315096378,0.0210450190066108,0.13950195908546448,0.8703000545501709,0.4583333432674408,0.7599999904632568,87.25,0.4932379126548767,0.35454148054122925,0.46362560987472534,192.46897888183594,55,1776652583.0164366
24,1,1,timeout,10.0,1.0,0.13957834243774414,0.12252185493707657,0.17376799881458282,0.047223933041095734,0.029482532292604446,0.022755082696676254,0.02342371642589569,0.03265676468564133,0.14869803190231323,0.8713889718055725,0.4416666626930237,0.7116666436195374,86.5,0.4657933712005615,0.3576734662055969,0.458076149225235,184.82928466796875,56,1776652583.0164366
25,1,1,timeout,10.0,1.0,0.0587584413588047,0.14273780584335327,0.18949517607688904,0.019738977774977684,0.025917815044522285,0.018039027228951454,0.014556169509887695,0.023179486063488037,0.14313648641109467,0.8659785389900208,0.46000000834465027,0.753333330154419,89.25,0.47540682554244995,0.355253130197525,0.46878311038017273,180.67332458496094,57,1776652583.0164366
26,1,1,timeout,10.0,1.0,0.2974570393562317,0.1098979189991951,0.24464498460292816,0.04467971622943878,0.024366384372115135,0.013600197620689869,0.011563342064619064,0.017851505679499616,0.14209359884262085,0.8662735819816589,0.46166667342185974,0.7566666603088379,87.0,0.5068398118019104,0.3530619144439697,0.4593017101287842,159.24070739746094,58,1776652583.0164366
27,1,1,timeout,10.0,1.0,0.11872099339962006,0.14247488975524902,0.17712873220443726,0.04996217042207718,0.02976635843515396,0.016757886856794357,0.011770074255764484,0.020478315846068275,0.14246182143688202,0.8652938604354858,0.4300000071525574,0.7549999952316284,88.0,0.47945719957351685,0.351788729429245,0.4634201228618622,167.197998046875,59,1776652583.0164366
28,1,1,timeout,10.0,1.0,0.1539112627506256,0.1557549089193344,0.1666334867477417,0.03279600664973259,0.02933787927031517,0.014771625399589539,0.012422486208379269,0.019300753367243774,0.1407974660396576,0.8639310002326965,0.43833333253860474,0.7766666412353516,88.5,0.47270211577415466,0.35832324624061584,0.45294320583343506,181.33035278320312,60,1776652583.0164366
29,1,1,timeout,10.0,1.0,0.16573451459407806,0.1629549115896225,0.188522070646286,0.007862221449613571,0.0220193974673748,0.015222612768411636,0.012050747871398926,0.019415160667814076,0.14320126175880432,0.8683168292045593,0.4449999928474426,0.7316666841506958,87.25,0.46663668751716614,0.354132741689682,0.46279990673065186,192.84999084472656,61,1776652583.0164366
30,1,1,timeout,10.0,1.0,0.26806625723838806,0.14374329149723053,0.19191975891590118,0.03056374564766884,0.02324542962014675,0.015122981742024422,0.01336929202079773,0.02018520611504797,0.13185806572437286,0.8693718314170837,0.48500001430511475,0.7649999856948853,88.25,0.48278048634529114,0.3531092405319214,0.45529860258102417,200.0054168701172,62,1776652583.0164366
31,1,1,timeout,10.0,1.0,0.25390690565109253,0.11993345618247986,0.23872269690036774,0.04139453172683716,0.03199699893593788,0.015701206400990486,0.019718028604984283,0.025205724241002935,0.13660982251167297,0.8665910363197327,0.4350000023841858,0.7149999737739563,87.25,0.4744732081890106,0.3552800416946411,0.463146448135376,155.37496948242188,63,1776652583.0164366
0,1,1,timeout,10.0,1.0,0.06805159151554108,0.17195454239845276,0.20824840664863586,0.008293438702821732,0.020120074972510338,0.01733149215579033,0.0116477245464921,0.020881812839338838,0.13391348719596863,0.8661976456642151,0.46666666865348816,0.7316666841506958,89.75,0.5055530667304993,0.35092517733573914,0.4609297811985016,178.46591186523438,64,1776652596.702698
1,1,1,timeout,10.0,1.0,0.10973116755485535,0.11772254854440689,0.17242737114429474,0.009465999901294708,0.03029431402683258,0.016755174845457077,0.014407352544367313,0.02209768520545817,0.13630758225917816,0.8643624186515808,0.46000000834465027,0.7416666746139526,85.5,0.5064171552658081,0.3511567711830139,0.4518548846244812,202.1855010986328,65,1776652596.702698
2,1,1,timeout,10.0,1.0,0.11782869696617126,0.16556917130947113,0.17583082616329193,0.010263310745358467,0.023433290421962738,0.018997058272361755,0.01804082654416561,0.026198466470390567,0.1465875208377838,0.8650928139686584,0.44999998807907104,0.7083333134651184,88.0,0.5123720169067383,0.3490585684776306,0.4530874490737915,195.71591186523438,66,1776652596.702698
3,1,1,timeout,10.0,1.0,0.2559998631477356,0.18141689896583557,0.1841728687286377,0.019133323803544044,0.02790982648730278,0.015762556344270706,0.008661942556500435,0.01798575634657664,0.13710153102874756,0.8631134629249573,0.4583333432674408,0.7283333539962769,88.25,0.49518299102783203,0.35559383034706116,0.45153412222862244,191.22084045410156,67,1776652596.702698
4,1,1,timeout,10.0,1.0,0.2449372410774231,0.14402107894420624,0.20146743953227997,0.03743012621998787,0.028352534398436546,0.01758040115237236,0.014603267423808575,0.02285445086038175,0.13536570966243744,0.8673695921897888,0.4633333384990692,0.7749999761581421,90.5,0.5107391476631165,0.35263147950172424,0.45197445154190063,168.4104461669922,68,1776652596.702698
5,1,1,timeout,10.0,1.0,0.057831645011901855,0.1456223577260971,0.18276384472846985,0.04564068466424942,0.024086693301796913,0.01520818006247282,0.007943288423120975,0.017157638875599505,0.14228227734565735,0.866538405418396,0.4833333194255829,0.7450000047683716,89.0,0.49779626727104187,0.35410603880882263,0.46049949526786804,185.86709594726562,69,1776652596.702698
6,1,1,timeout,10.0,1.0,0.2955757677555084,0.15510194003582,0.20540887117385864,0.06510280817747116,0.030453046783804893,0.02213718555867672,0.017071368172764778,0.02795508175179195,0.1414845883846283,0.8678281903266907,0.44333332777023315,0.7316666841506958,88.25,0.5166611671447754,0.352229505777359,0.4566616714000702,160.7443084716797,70,1776652596.702698
7,1,1,timeout,10.0,1.0,0.18980786204338074,0.1326337456703186,0.1672855019569397,0.05878257751464844,0.02313394285738468,0.014024828560650349,0.01162034459412098,0.018213407826152425,0.13605886697769165,0.8658050298690796,0.4583333432674408,0.75,88.75,0.4914087951183319,0.35343649983406067,0.44987592101097107,200.80215454101562,71,1776652596.702698
8,1,1,timeout,10.0,1.0,0.08836410939693451,0.1342407464981079,0.17141366004943848,0.015135454013943672,0.019862642511725426,0.013899390585720539,0.00965337548404932,0.016922786912635317,0.140877366065979,0.86310875415802,0.4650000035762787,0.7483333349227905,85.5,0.5195202827453613,0.34964385628700256,0.4658754765987396,205.1182403564453,72,1776652596.702698
9,1,1,timeout,10.0,1.0,0.2949445843696594,0.16534015536308289,0.2085995227098465,0.05965496227145195,0.028884438797831535,0.013610542751848698,0.01248928252607584,0.018472386202546882,0.13460905849933624,0.8636234402656555,0.4633333384990692,0.7616666555404663,89.75,0.5058266520500183,0.3519492447376251,0.45543935894966125,173.6220245361328,73,1776652596.702698
10,1,1,timeout,10.0,1.0,0.276023268699646,0.14454805850982666,0.21290117502212524,0.0567142479121685,0.03263557702302933,0.015555314719676971,0.011994829401373863,0.019642905803273148,0.13377483189105988,0.8669422268867493,0.4699999988079071,0.7416666746139526,89.75,0.5104727745056152,0.34887242317199707,0.4637297987937927,167.3088836669922,74,1776652596.702698
11,1,1,timeout,10.0,1.0,0.09445718675851822,0.16184143722057343,0.1718650758266449,0.01115729846060276,0.02981085516512394,0.013028913177549839,0.009559569880366325,0.01615976345389186,0.1365024298429489,0.8652860522270203,0.4566666781902313,0.7416666746139526,88.25,0.4987054467201233,0.3542320728302002,0.46395811438560486,194.1791534423828,75,1776652596.702698
12,1,1,timeout,10.0,1.0,0.2880527675151825,0.12821559607982635,0.21774394810199738,0.042322710156440735,0.026706663891673088,0.017319904640316963,0.012925387360155582,0.02161121780834534,0.13650669157505035,0.861016035079956,0.4749999940395355,0.7749999761581421,90.75,0.4982217848300934,0.35343703627586365,0.4582410454750061,159.8284149169922,76,1776652596.702698
13,1,1,timeout,10.0,1.0,0.1408080905675888,0.1333438903093338,0.18273279070854187,0.021489281207323074,0.025725748389959335,0.0165550634264946,0.013398689217865467,0.021297769784937658,0.14308872818946838,0.8664227724075317,0.4533333480358124,0.7400000095367432,86.5,0.4991656243801117,0.3512323200702667,0.4596157968044281,186.4893798828125,77,1776652596.702698
14,1,1,timeout,10.0,1.0,0.2987948954105377,0.1475745588541031,0.217604398727417,0.003956545144319534,0.026986027136445045,0.011723815463483334,0.00848416518419981,0.014471658781722263,0.13942933082580566,0.8645875453948975,0.44999998807907104,0.7666666507720947,88.75,0.4879474639892578,0.35199791193008423,0.4641728103160858,182.5478973388672,78,1776652596.702698
15,1,1,timeout,10.0,1.0,0.11207369714975357,0.1598353236913681,0.19102352857589722,0.041409481316804886,0.02659178525209427,0.016511347144842148,0.008530227467417717,0.018584654023773878,0.1325913816690445,0.8620124459266663,0.4449999928474426,0.7433333396911621,87.25,0.49986934661865234,0.35473939776420593,0.4751754105091095,185.3529510498047,79,1776652596.702698
16,1,1,timeout,10.0,1.0,0.2297176867723465,0.15557979047298431,0.17947310209274292,0.040810726583004,0.030008913949131966,0.021983765065670013,0.010831628926098347,0.024507348115519634,0.13162320852279663,0.8653450608253479,0.4516666531562805,0.7450000047683716,87.25,0.5110320448875427,0.35025447607040405,0.455552875995636,187.03111267089844,80,1776652596.702698
17,1,1,timeout,10.0,1.0,0.24263842403888702,0.14592905342578888,0.1875055879354477,0.009580530226230621,0.024926818907260895,0.017426325008273125,0.01048695296049118,0.02033846075025148,0.1445988565683365,0.8627925515174866,0.46666666865348816,0.7350000143051147,88.75,0.5230734944343567,0.3531758189201355,0.4636573791503906,184.6040802001953,81,1776652596.702698
18,1,1,timeout,10.0,1.0,0.18685123324394226,0.12975367903709412,0.17534367740154266,0.0013238228857517242,0.02759946510195732,0.015597352758049965,0.011213294230401516,0.019209773048024403,0.13744187355041504,0.8678617477416992,0.45500001311302185,0.7333333492279053,87.75,0.5082055926322937,0.34813517332077026,0.45361655950546265,218.0198974609375,82,1776652596.702698
19,1,1,timeout,10.0,1.0,0.2326921820640564,0.15876193344593048,0.16682443022727966,0.02643212303519249,0.023867236450314522,0.01749362051486969,0.01608271151781082,0.02376300419735254,0.14514049887657166,0.8642300367355347,0.4449999928474426,0.7366666793823242,88.25,0.5092452764511108,0.35241249203681946,0.4452509582042694,199.77565002441406,83,1776652596.702698
20,1,1,timeout,10.0,1.0,0.13804973661899567,0.15560562908649445,0.17048047482967377,0.04094669222831726,0.02887701615691185,0.01707041822373867,0.011740528047084808,0.02071808816367317,0.14582858979701996,0.8633763194084167,0.43833333253860474,0.7350000143051147,86.5,0.5072392225265503,0.34975430369377136,0.4524005949497223,189.86016845703125,84,1776652596.702698
21,1,1,timeout,10.0,1.0,0.14322394132614136,0.12595807015895844,0.16653026640415192,0.03914846479892731,0.023050582036376,0.015361658297479153,0.009036997333168983,0.017822678430814302,0.13306894898414612,0.8670765161514282,0.4483333230018616,0.7300000190734863,86.5,0.5082810521125793,0.35353225469589233,0.4446698725223541,206.24037170410156,85,1776652596.702698
22,1,1,timeout,10.0,1.0,0.25217416882514954,0.1800651103258133,0.18645323812961578,0.01274824421852827,0.024800319224596024,0.017378835007548332,0.017619624733924866,0.024748233916462085,0.13651618361473083,0.8705204725265503,0.4533333480358124,0.7316666841506958,90.0,0.5080927014350891,0.35051965713500977,0.4740910232067108,195.8489990234375,86,1776652596.702698
23,1,1,timeout,10.0,1.0,0.19962696731090546,0.15389466285705566,0.17061100900173187,0.005697552114725113,0.02379537560045719,0.013895565643906593,0.012052460573613644,0.018394253190674215,0.13414794206619263,0.8669435977935791,0.4266666769981384,0.721666693687439,86.0,0.5049425959587097,0.3512152135372162,0.4510827362537384,209.54464721679688,87,1776652596.702698
24,1,1,timeout,10.0,1.0,0.05527376011013985,0.15491367876529694,0.1853070706129074,0.04407937452197075,0.026509977877140045,0.014886654913425446,0.010584896430373192,0.018266157969128075,0.13418832421302795,0.8605837225914001,0.4749999940395355,0.7883333563804626,89.5,0.5020158886909485,0.3534499704837799,0.4554014801979065,181.84788513183594,88,1776652596.702698
25,1,1,timeout,10.0,1.0,0.292785108089447,0.14924244582653046,0.22035108506679535,0.009451594203710556,0.024278070777654648,0.02563619613647461,0.0252951979637146,0.036014741320344185,0.13647471368312836,0.8650782108306885,0.43166667222976685,0.7083333134651184,85.75,0.4997103214263916,0.3518751561641693,0.4674270451068878,179.91363525390625,89,1776652596.702698
26,1,1,timeout,10.0,1.0,0.10026156902313232,0.12602098286151886,0.1687365174293518,0.016324026510119438,0.03373465687036514,0.01666087843477726,0.010194394737482071,0.01953229516165543,0.13876618444919586,0.8597704172134399,0.4399999976158142,0.7350000143051147,83.5,0.5069980025291443,0.35191893577575684,0.45919275283813477,192.2154541015625,90,1776652596.702698
27,1,1,timeout,10.0,1.0,0.17553213238716125,0.15861734747886658,0.17538388073444366,0.028355713933706284,0.025903210043907166,0.017125329002738,0.014826023019850254,0.022651442603886157,0.1455269604921341,0.8682618737220764,0.4583333432674408,0.7516666650772095,89.5,0.5074678659439087,0.3539324998855591,0.4470457136631012,189.9373321533203,91,1776652596.702698
28,1,1,timeout,10.0,1.0,0.17690300941467285,0.14680325984954834,0.16986796259880066,0.010884626768529415,0.024222357198596,0.01780448481440544,0.01527324877679348,0.023457873043057794,0.13686227798461914,0.8645612001419067,0.4466666579246521,0.7083333134651184,86.25,0.5186336040496826,0.35128065943717957,0.4559086263179779,203.41648864746094,92,1776652596.702698
29,1,1,timeout,10.0,1.0,0.22811149060726166,0.15519016981124878,0.17779938876628876,0.010420824401080608,0.022978657856583595,0.01595340669155121,0.013661570847034454,0.021003564056477953,0.136465921998024,0.8618669509887695,0.4483333230018616,0.7333333492279053,90.5,0.5076692700386047,0.35094285011291504,0.46197688579559326,200.0860137939453,93,1776652596.702698
30,1,1,timeout,10.0,1.0,0.23379862308502197,0.1522565484046936,0.18362151086330414,0.07934257388114929,0.029956506565213203,0.019582856446504593,0.015997089445590973,0.02528626380734498,0.1372077614068985,0.8675071597099304,0.4650000035762787,0.7400000095367432,88.75,0.5067752003669739,0.35259273648262024,0.4543764591217041,183.13528442382812,94,1776652596.702698
31,1,1,timeout,10.0,1.0,0.2605898082256317,0.1419437974691391,0.20011864602565765,0.017138496041297913,0.023022949695587158,0.019719673320651054,0.018292732536792755,0.026897761608279475,0.13958236575126648,0.8664224743843079,0.4650000035762787,0.7283333539962769,87.0,0.5084850192070007,0.3517990708351135,0.4448428750038147,184.5633087158203,95,1776652596.702698
0,1,1,timeout,10.0,1.0,0.14999742805957794,0.16107483208179474,0.14224058389663696,0.003446243703365326,0.02367495186626911,0.017094744369387627,0.016400588676333427,0.02368986268396223,0.13255633413791656,0.8649263978004456,0.46833333373069763,0.6916666626930237,89.5,0.5642300844192505,0.3458380103111267,0.4416445195674896,221.36973571777344,96,1776652610.2316887
1,1,1,timeout,10.0,1.0,0.2906777858734131,0.15145637094974518,0.2029791623353958,0.029398925602436066,0.021113410592079163,0.014868490397930145,0.01999034732580185,0.02491357045707287,0.13730323314666748,0.8631016612052917,0.4516666531562805,0.6883333325386047,86.0,0.5560792088508606,0.34583035111427307,0.43711990118026733,176.01878356933594,97,1776652610.2316887
2,1,1,timeout,10.0,1.0,0.19814981520175934,0.1458204984664917,0.15409310162067413,0.005745161324739456,0.021303119137883186,0.014456305652856827,0.01476682722568512,0.020665041965649514,0.15023347735404968,0.8635507822036743,0.49000000953674316,0.7016666531562805,90.0,0.5545246601104736,0.34368982911109924,0.4355381429195404,238.87753295898438,98,1776652610.2316887
3,1,1,timeout,10.0,1.0,0.08958245813846588,0.15794020891189575,0.19432543218135834,0.050877105444669724,0.027323879301548004,0.015461654402315617,0.012069055810570717,0.019614404528695655,0.13769695162773132,0.8625949025154114,0.4866666793823242,0.7016666531562805,86.0,0.5444295406341553,0.34699922800064087,0.45028156042099,170.13449096679688,99,1776652610.2316887
4,1,1,timeout,10.0,1.0,0.15422847867012024,0.1487494856119156,0.13813276588916779,0.05896551534533501,0.024057621136307716,0.013378897681832314,0.01661684736609459,0.021333413218916065,0.13519538938999176,0.8682133555412292,0.46000000834465027,0.6783333420753479,89.0,0.5668762922286987,0.3455541133880615,0.45096713304519653,212.15960693359375,100,1776652610.2316887
5,1,1,timeout,10.0,1.0,0.11980780214071274,0.1492110788822174,0.14021386206150055,0.011947739869356155,0.02303197607398033,0.013021871447563171,0.016683073714375496,0.021163508323436064,0.14019399881362915,0.862899899482727,0.476666659116745,0.6933333277702332,88.5,0.5666146874427795,0.346187561750412,0.44667667150497437,233.43502807617188,101,1776652610.2316887
6,1,1,timeout,10.0,1.0,0.1659383475780487,0.15622533857822418,0.14325979351997375,0.014792945235967636,0.02375594712793827,0.014127835631370544,0.016579633578658104,0.021782561585580115,0.1516025811433792,0.865530788898468,0.4533333480358124,0.6666666865348816,87.75,0.5750545859336853,0.3429203927516937,0.4391757845878601,230.99911499023438,102,1776652610.2316887
7,1,1,timeout,10.0,1.0,0.09926225244998932,0.12817157804965973,0.1510917991399765,0.030655469745397568,0.02458207495510578,0.01592998579144478,0.01236419752240181,0.020165262896590253,0.13808973133563995,0.8640742301940918,0.4749999940395355,0.6983333230018616,90.0,0.5632290840148926,0.3427133560180664,0.4237215220928192,214.08285522460938,103,1776652610.2316887
8,1,1,timeout,10.0,1.0,0.2991158664226532,0.14933454990386963,0.20369070768356323,0.0033862979616969824,0.02117322012782097,0.0149746248498559,0.016434896737337112,0.022233875509250652,0.13452734053134918,0.8662548661231995,0.5083333253860474,0.699999988079071,94.0,0.5536059737205505,0.34984731674194336,0.43276578187942505,187.59774780273438,104,1776652610.2316887
9,1,1,timeout,10.0,1.0,0.26029515266418457,0.16244308650493622,0.18559208512306213,0.02274026721715927,0.02687128074467182,0.019659290090203285,0.02227022498846054,0.029706070219526134,0.1377512663602829,0.8636847734451294,0.4749999940395355,0.6616666913032532,86.5,0.5541484951972961,0.3454369306564331,0.4435872733592987,190.30918884277344,105,1776652610.2316887
10,1,1,timeout,10.0,1.0,0.2748541831970215,0.1198214590549469,0.20648279786109924,0.0028181150555610657,0.02223539724946022,0.01527078915387392,0.015790877863764763,0.021966993993043502,0.1444656401872635,0.862151026725769,0.476666659116745,0.7099999785423279,90.5,0.5591056942939758,0.34758713841438293,0.4290304481983185,181.3188018798828,106,1776652610.2316887
11,1,1,timeout,10.0,1.0,0.06426812708377838,0.13300257921218872,0.16937658190727234,0.0374271459877491,0.023723086342215538,0.015318695455789566,0.020800204947590828,0.02583236257737588,0.13438741862773895,0.8667758107185364,0.49000000953674316,0.67166668176651,88.25,0.5669422745704651,0.34741371870040894,0.4309981167316437,196.8580322265625,107,1776652610.2316887
12,1,1,timeout,10.0,1.0,0.2915266156196594,0.1646333485841751,0.20658285915851593,0.007014994043856859,0.023160694167017937,0.01666244864463806,0.011222817935049534,0.020089520582594056,0.1310994178056717,0.8664893507957458,0.47999998927116394,0.7133333086967468,87.0,0.5659152865409851,0.345634788274765,0.44079118967056274,193.4063720703125,108,1776652610.2316887
13,1,1,timeout,10.0,1.0,0.2996956706047058,0.12845063209533691,0.23422719538211823,0.09200859814882278,0.025866156443953514,0.014379475265741348,0.019666671752929688,0.024362825918918963,0.14532031118869781,0.8613818883895874,0.4749999940395355,0.70333331823349,89.25,0.5535215735435486,0.34408265352249146,0.43710124492645264,148.86619567871094,109,1776652610.2316887
14,1,1,timeout,10.0,1.0,0.16618087887763977,0.14299197494983673,0.16181416809558868,0.04465655982494354,0.020088499411940575,0.016091929748654366,0.0184552650898695,0.024485649114797493,0.13237260282039642,0.8612332344055176,0.503333330154419,0.7116666436195374,91.25,0.5832477807998657,0.34178128838539124,0.42380598187446594,209.24269104003906,110,1776652610.2316887
15,1,1,timeout,10.0,1.0,0.07188346236944199,0.16301243007183075,0.18146316707134247,0.021443109959363937,0.020470913499593735,0.014728323556482792,0.017148209735751152,0.022604968744188887,0.13741552829742432,0.8608567118644714,0.46666666865348816,0.6866666674613953,90.0,0.5681326985359192,0.3446004390716553,0.43441516160964966,195.79029846191406,111,1776652610.2316887
16,1,1,timeout,10.0,1.0,0.19572369754314423,0.15979675948619843,0.14974670112133026,0.027648989111185074,0.02137397974729538,0.010150627233088017,0.01686052978038788,0.01968026162682942,0.1374693661928177,0.8602526187896729,0.47833332419395447,0.6983333230018616,91.25,0.5758816599845886,0.3445155918598175,0.4361386001110077,221.9444580078125,112,1776652610.2316887
17,1,1,timeout,10.0,1.0,0.2681093215942383,0.15208211541175842,0.19184885919094086,0.02273792400956154,0.0224725604057312,0.013547065667808056,0.014790114015340805,0.02005668120090371,0.13756795227527618,0.8603191375732422,0.45500001311302185,0.6883333325386047,88.25,0.5629523396492004,0.3487585783004761,0.4336971640586853,204.95892333984375,113,1776652610.2316887
18,1,1,timeout,10.0,1.0,0.17103935778141022,0.150369331240654,0.15805165469646454,0.010623496025800705,0.02303025685250759,0.01575038768351078,0.012431612238287926,0.020065385494030218,0.1340319812297821,0.865276575088501,0.4566666781902313,0.7066666483879089,85.0,0.5624664425849915,0.3456924855709076,0.43526390194892883,207.52401733398438,114,1776652610.2316887
19,1,1,timeout,10.0,1.0,0.26161935925483704,0.1546887755393982,0.19166314601898193,0.044365204870700836,0.02419670857489109,0.018409691751003265,0.019776802510023117,0.027019227744097617,0.1361900418996811,0.863048255443573,0.4749999940395355,0.6983333230018616,88.25,0.579247772693634,0.344595342874527,0.43721234798431396,198.31106567382812,115,1776652610.2316887
20,1,1,timeout,10.0,1.0,0.21015094220638275,0.14976973831653595,0.17139437794685364,0.04747062176465988,0.023024143651127815,0.015189431607723236,0.01852317526936531,0.023954683354728952,0.13499604165554047,0.8614542484283447,0.4950000047683716,0.7083333134651184,88.25,0.5491868853569031,0.35051870346069336,0.44663962721824646,191.89430236816406,116,1776652610.2316887
21,1,1,timeout,10.0,1.0,0.21663658320903778,0.15354134142398834,0.1791377067565918,0.03550953418016434,0.021638795733451843,0.01674829050898552,0.017541922628879547,0.02425333553330285,0.138272225856781,0.8626127243041992,0.4583333432674408,0.7099999785423279,85.5,0.5510873794555664,0.346475213766098,0.4325537383556366,190.04689025878906,117,1776652610.2316887
22,1,1,timeout,10.0,1.0,0.124216727912426,0.13766731321811676,0.1383550614118576,0.008589416742324829,0.02242569997906685,0.01360667310655117,0.015525028109550476,0.020643838083817537,0.14544861018657684,0.8613110184669495,0.4816666543483734,0.7133333086967468,88.0,0.5703602433204651,0.3457505404949188,0.4232238531112671,226.21136474609375,118,1776652610.2316887
23,1,1,timeout,10.0,1.0,0.20567604899406433,0.15821310877799988,0.15467999875545502,0.07569188624620438,0.02478182129561901,0.013629220426082611,0.016412096098065376,0.0213333670046451,0.14421358704566956,0.8659377098083496,0.4633333384990692,0.6983333230018616,86.0,0.5784841775894165,0.3432563543319702,0.43814343214035034,206.64532470703125,119,1776652610.2316887
24,1,1,timeout,10.0,1.0,0.272133469581604,0.14837390184402466,0.2032167911529541,0.046462904661893845,0.029259761795401573,0.016078338027000427,0.023875121027231216,0.028784272750504332,0.13787077367305756,0.8578746318817139,0.46166667342185974,0.6916666626930237,89.75,0.5441785454750061,0.3467273712158203,0.4331541061401367,174.103271484375,120,1776652610.2316887
25,1,1,timeout,10.0,1.0,0.29984843730926514,0.14930927753448486,0.22195683419704437,0.043029557913541794,0.021029310300946236,0.017155759036540985,0.013576282188296318,0.021877739969569744,0.13597078621387482,0.8623968958854675,0.47999998927116394,0.6966666579246521,87.5,0.5601810216903687,0.349553644657135,0.4338338375091553,180.9489288330078,121,1776652610.2316887
26,1,1,timeout,10.0,1.0,0.15696366131305695,0.13398432731628418,0.15128552913665771,0.022261561825871468,0.01954859122633934,0.012181193567812443,0.015672659501433372,0.019849779157068346,0.13280850648880005,0.8605018258094788,0.4933333396911621,0.7250000238418579,92.0,0.5801772475242615,0.34304702281951904,0.44563502073287964,225.1830596923828,122,1776652610.2316887
27,1,1,timeout,10.0,1.0,0.2901540696620941,0.15437883138656616,0.1900218278169632,0.0039581842720508575,0.01930340565741062,0.018396060913801193,0.01806127279996872,0.025780314821568295,0.14792466163635254,0.8659521341323853,0.5016666650772095,0.7049999833106995,89.75,0.5934540033340454,0.3417874872684479,0.4194483458995819,197.81350708007812,123,1776652610.2316887
28,1,1,timeout,10.0,1.0,0.08503857254981995,0.15051503479480743,0.16543340682983398,0.05919903889298439,0.026251962408423424,0.01632416807115078,0.018239857628941536,0.024477967022186204,0.13836750388145447,0.8592256307601929,0.49166667461395264,0.7133333086967468,92.0,0.5714917182922363,0.34472891688346863,0.4447256624698639,190.79640197753906,124,1776652610.2316887
29,1,1,timeout,10.0,1.0,0.2318640947341919,0.1467958390712738,0.1754915565252304,0.049185607582330704,0.021684186533093452,0.01667812652885914,0.021487940102815628,0.027200946203667753,0.13403384387493134,0.862260639667511,0.4983333349227905,0.6783333420753479,88.0,0.5750760436058044,0.3435657024383545,0.4372562766075134,202.7340087890625,125,1776652610.2316887
30,1,1,timeout,10.0,1.0,0.20148850977420807,0.15368638932704926,0.1629907190799713,0.016953593119978905,0.02189238741993904,0.01540791243314743,0.01887945458292961,0.02436878271265188,0.1360512673854828,0.8620237112045288,0.45500001311302185,0.6899999976158142,85.5,0.5686754584312439,0.3421158492565155,0.44388729333877563,218.10072326660156,126,1776652610.2316887
31,1,1,timeout,10.0,1.0,0.18964029848575592,0.1446727067232132,0.1575261801481247,0.003432920202612877,0.02100694738328457,0.01552393939346075,0.016861306503415108,0.022919344477841226,0.1381538212299347,0.8643853068351746,0.4883333444595337,0.7016666531562805,90.75,0.5708382725715637,0.34580639004707336,0.4457305371761322,229.02000427246094,127,1776652610.2316887
0,1,1,timeout,10.0,1.0,0.1291096806526184,0.14571429789066315,0.15941216051578522,0.032721299678087234,0.01819940283894539,0.01669866405427456,0.02642078697681427,0.03125545337491875,0.13720856606960297,0.8555564284324646,0.4866666793823242,0.6833333373069763,89.75,0.6256412863731384,0.339456170797348,0.41068601608276367,204.72586059570312,128,1776652623.6041076
1,1,1,timeout,10.0,1.0,0.20666806399822235,0.14627790451049805,0.1504695862531662,0.036222346127033234,0.01800493150949478,0.013986984267830849,0.01790209859609604,0.02271829357704692,0.13334804773330688,0.8608530163764954,0.5049999952316284,0.6766666769981384,91.0,0.6365796327590942,0.33508333563804626,0.42262428998947144,219.79249572753906,129,1776652623.6041076
2,1,1,timeout,10.0,1.0,0.2677077651023865,0.14342035353183746,0.19650186598300934,0.109188012778759,0.026072774082422256,0.017054563388228416,0.016555199399590492,0.02376831419186692,0.134730264544487,0.8606760501861572,0.46833333373069763,0.6916666626930237,87.75,0.5991997718811035,0.34302279353141785,0.42716312408447266,160.4748992919922,130,1776652623.6041076
3,1,1,timeout,10.0,1.0,0.2049112766981125,0.15313270688056946,0.15664298832416534,0.02550375834107399,0.02044662833213806,0.016049057245254517,0.017799165099859238,0.023966278741463048,0.13305285573005676,0.8607701659202576,0.4816666543483734,0.6733333468437195,87.0,0.6236962080001831,0.33937007188796997,0.4310300946235657,220.01695251464844,131,1776652623.6041076
4,1,1,timeout,10.0,1.0,0.09693718701601028,0.1687350869178772,0.15499447286128998,0.010396678932011127,0.016237860545516014,0.01671668514609337,0.01587756723165512,0.023055253272721753,0.13621853291988373,0.8647637963294983,0.4933333396911621,0.7183333039283752,91.0,0.6060390472412109,0.3387143909931183,0.42261481285095215,218.7235107421875,132,1776652623.6041076
5,1,1,timeout,10.0,1.0,0.18020226061344147,0.15670011937618256,0.1464868187904358,0.024564005434513092,0.018694162368774414,0.01476386096328497,0.013855909928679466,0.020247415402833223,0.13878940045833588,0.8556538820266724,0.49666666984558105,0.6800000071525574,89.25,0.6316519975662231,0.3370420038700104,0.4373184144496918,227.8935546875,133,1776652623.6041076
6,1,1,timeout,10.0,1.0,0.15000256896018982,0.1837150752544403,0.16353046894073486,0.021420249715447426,0.014996474608778954,0.014541687443852425,0.014704059809446335,0.02068018492650562,0.1474238783121109,0.8576163053512573,0.5,0.753333330154419,92.0,0.6227410435676575,0.33957239985466003,0.4328351318836212,205.1329345703125,134,1776652623.6041076
7,1,1,timeout,10.0,1.0,0.24251551926136017,0.14171387255191803,0.17864558100700378,0.002946116030216217,0.018545454367995262,0.016153056174516678,0.015070258639752865,0.022091489747098028,0.1343361884355545,0.8597171902656555,0.5,0.6766666769981384,88.75,0.6133567094802856,0.34328797459602356,0.425096720457077,209.4432830810547,135,1776652623.6041076
8,1,1,timeout,10.0,1.0,0.11322394013404846,0.15913443267345428,0.15611125528812408,0.02768407203257084,0.020183905959129333,0.015040811151266098,0.017126308754086494,0.022793342265414924,0.1336921751499176,0.8568504452705383,0.503333330154419,0.699999988079071,89.75,0.6092411279678345,0.336994469165802,0.4265136420726776,215.810791015625,136,1776652623.6041076
9,1,1,timeout,10.0,1.0,0.12494245171546936,0.15411466360092163,0.1459886133670807,0.027624867856502533,0.016498953104019165,0.012175127863883972,0.01583671011030674,0.01997586357632169,0.13331492245197296,0.8590983748435974,0.4883333444595337,0.7116666436195374,88.5,0.5994502902030945,0.3412196636199951,0.4285726249217987,227.10960388183594,137,1776652623.6041076
10,1,1,timeout,10.0,1.0,0.24016502499580383,0.16142581403255463,0.1573730856180191,0.02266625128686428,0.017569653689861298,0.014238260686397552,0.017441261559724808,0.022515009930456357,0.14651308953762054,0.8632418513298035,0.49000000953674316,0.699999988079071,91.5,0.6187968254089355,0.34072211384773254,0.4274391531944275,223.52801513671875,138,1776652623.6041076
11,1,1,timeout,10.0,1.0,0.09555043280124664,0.1625843048095703,0.14452514052391052,0.03125786781311035,0.019746854901313782,0.013648206368088722,0.01611398346722126,0.02111714943470869,0.13242127001285553,0.8605188131332397,0.4933333396911621,0.67166668176651,90.75,0.6230636835098267,0.33810529112815857,0.4289071261882782,221.70770263671875,139,1776652623.6041076
12,1,1,timeout,10.0,1.0,0.12835922837257385,0.14560629427433014,0.16326583921909332,0.01106299925595522,0.023506902158260345,0.015470375306904316,0.019334299489855766,0.024761818368203733,0.1395200490951538,0.8631713390350342,0.4749999940395355,0.6816666722297668,84.5,0.6019778251647949,0.34395021200180054,0.42951270937919617,212.48934936523438,140,1776652623.6041076
13,1,1,timeout,10.0,1.0,0.11839514225721359,0.1445453017950058,0.1448412388563156,0.006273576058447361,0.014870324172079563,0.015868769958615303,0.019440047442913055,0.02509448753376251,0.1354323774576187,0.8558286428451538,0.4816666543483734,0.699999988079071,90.25,0.6101334691047668,0.3403383195400238,0.4234251379966736,229.95663452148438,141,1776652623.6041076
14,1,1,timeout,10.0,1.0,0.2745160460472107,0.15104444324970245,0.18765638768672943,0.05371328070759773,0.020830636844038963,0.01644437201321125,0.01592203788459301,0.022889488008850274,0.13548672199249268,0.8590843081474304,0.5049999952316284,0.7116666436195374,90.25,0.6259057521820068,0.3336828649044037,0.42179346084594727,193.61468505859375,142,1776652623.6041076
15,1,1,timeout,10.0,1.0,0.07332926988601685,0.14869451522827148,0.15262505412101746,0.013679573312401772,0.02033580280840397,0.01474920567125082,0.0199485644698143,0.024808955889742617,0.13715918362140656,0.8592513799667358,0.5049999952316284,0.6949999928474426,89.75,0.618026077747345,0.3396243751049042,0.4306211471557617,203.57742309570312,143,1776652623.6041076
16,1,1,timeout,10.0,1.0,0.1835392564535141,0.15680833160877228,0.1437511146068573,0.01782088540494442,0.01640293188393116,0.013477735221385956,0.012806378304958344,0.018591736658728125,0.14015689492225647,0.8576679825782776,0.4883333444595337,0.7083333134651184,88.0,0.6038535237312317,0.3418206572532654,0.4300556182861328,229.2325897216797,144,1776652623.6041076
17,1,1,timeout,10.0,1.0,0.14400452375411987,0.14302073419094086,0.13796007633209229,0.01938767544925213,0.022002456709742546,0.015130673535168171,0.020161908119916916,0.025207931701427037,0.13577179610729218,0.8563174605369568,0.49000000953674316,0.6600000262260437,86.5,0.6109759211540222,0.3376059830188751,0.4276651442050934,229.76611328125,145,1776652623.6041076
18,1,1,timeout,10.0,1.0,0.2713598608970642,0.14418257772922516,0.18982449173927307,0.01769411563873291,0.024697627872228622,0.01623915322124958,0.01676883175969124,0.023343174932473308,0.13161304593086243,0.8597883582115173,0.4833333194255829,0.6800000071525574,89.75,0.6100807785987854,0.3434373438358307,0.4194386303424835,192.9135284423828,146,1776652623.6041076
19,1,1,timeout,10.0,1.0,0.08419369161128998,0.1584889143705368,0.1468936949968338,0.010774482041597366,0.020303750410676003,0.013756999745965004,0.01615094766020775,0.021215752457390036,0.13863006234169006,0.8585796356201172,0.476666659116745,0.6883333325386047,89.25,0.5773232579231262,0.3429185152053833,0.4333842992782593,221.5865020751953,147,1776652623.6041076
20,1,1,timeout,10.0,1.0,0.25476154685020447,0.15105707943439484,0.17603924870491028,0.007339004892855883,0.015258748084306717,0.015198171138763428,0.017616696655750275,0.023266551249032687,0.1354510486125946,0.8599831461906433,0.48500001430511475,0.699999988079071,89.25,0.6199216246604919,0.3404620587825775,0.43006202578544617,215.9629669189453,148,1776652623.6041076
21,1,1,timeout,10.0,1.0,0.16577903926372528,0.1641978919506073,0.15806050598621368,0.0013196133077144623,0.019263915717601776,0.013946508057415485,0.018842488527297974,0.023442364660949008,0.13763682544231415,0.8598007559776306,0.5166666507720947,0.7049999833106995,91.0,0.6020835041999817,0.3402869403362274,0.43060028553009033,224.11062622070312,149,1776652623.6041076
22,1,1,timeout,10.0,1.0,0.27855968475341797,0.16230987012386322,0.1860995888710022,0.005712622776627541,0.017242979258298874,0.014110170304775238,0.018730835989117622,0.023450823501126455,0.13679882884025574,0.8632462620735168,0.4983333349227905,0.70333331823349,90.75,0.6227757930755615,0.33781102299690247,0.42458558082580566,216.7229461669922,150,1776652623.6041076
23,1,1,timeout,10.0,1.0,0.08955439925193787,0.14588099718093872,0.15416204929351807,0.005052234511822462,0.016204439103603363,0.015340925194323063,0.016156800091266632,0.02227972564927516,0.1391821652650833,0.8611270785331726,0.4933333396911621,0.6733333468437195,88.5,0.611600399017334,0.3436998724937439,0.4266185760498047,230.0864715576172,151,1776652623.6041076
24,1,1,timeout,10.0,1.0,0.27716755867004395,0.16516567766666412,0.17999425530433655,0.037530846893787384,0.02102608233690262,0.01471695676445961,0.01742098107933998,0.022805249355657024,0.14642079174518585,0.8574619293212891,0.4950000047683716,0.6783333420753479,89.5,0.6192926168441772,0.3383449614048004,0.42812129855155945,200.39791870117188,152,1776652623.6041076
25,1,1,timeout,10.0,1.0,0.28058353066444397,0.15811504423618317,0.19082209467887878,0.030911527574062347,0.017123812809586525,0.01448938250541687,0.013530613854527473,0.019824724882545313,0.13792374730110168,0.8572604060173035,0.49166667461395264,0.7133333086967468,88.5,0.6127625107765198,0.3373761773109436,0.4330334961414337,206.08218383789062,153,1776652623.6041076
26,1,1,timeout,10.0,1.0,0.2959512770175934,0.1459641456604004,0.20797397196292877,0.05840421840548515,0.01911878027021885,0.015822555869817734,0.01695013977587223,0.023187507685715373,0.14108756184577942,0.8615460395812988,0.4866666793823242,0.6949999928474426,89.0,0.6186918616294861,0.33652496337890625,0.42517730593681335,177.83798217773438,154,1776652623.6041076
27,1,1,timeout,10.0,1.0,0.25724267959594727,0.14638276398181915,0.19329586625099182,0.010124637745320797,0.01871633529663086,0.01363912783563137,0.020840633660554886,0.02490698334785142,0.1388109177350998,0.8639613389968872,0.4749999940395355,0.6949999928474426,90.75,0.6195772886276245,0.3376273810863495,0.4161543548107147,202.8455810546875,155,1776652623.6041076
28,1,1,timeout,10.0,1.0,0.2936706840991974,0.13524705171585083,0.21024110913276672,0.04801316186785698,0.021227529272437096,0.01660781353712082,0.016259849071502686,0.023242249510574922,0.1402449756860733,0.8579874038696289,0.47833332419395447,0.6850000023841858,88.25,0.6100669503211975,0.338608056306839,0.42673835158348083,177.05459594726562,156,1776652623.6041076
29,1,1,timeout,10.0,1.0,0.1934051364660263,0.1568664163351059,0.16053326427936554,0.04162894934415817,0.0222639050334692,0.014053327962756157,0.01788351871073246,0.02274458767060643,0.1503261774778366,0.855686366558075,0.5,0.70333331823349,88.0,0.6131576895713806,0.3409123420715332,0.42744794487953186,222.1693878173828,157,1776652623.6041076
30,1,1,timeout,10.0,1.0,0.26901546120643616,0.14702393114566803,0.17685097455978394,0.026668401435017586,0.0165555477142334,0.017786601558327675,0.02080182544887066,0.027369310130143716,0.1376592367887497,0.8633893132209778,0.5066666603088379,0.699999988079071,90.5,0.6074497103691101,0.340061753988266,0.4168784022331238,212.24273681640625,158,1776652623.6041076
31,1,1,timeout,10.0,1.0,0.10288048535585403,0.14879147708415985,0.1514771282672882,0.01883295364677906,0.019710220396518707,0.015429404564201832,0.01810406520962715,0.023787049046072203,0.13666117191314697,0.8606751561164856,0.47999998927116394,0.7133333086967468,88.75,0.6074585318565369,0.33875027298927307,0.43415528535842896,211.92596435546875,159,1776652623.6041076
0,1,1,timeout,10.0,1.0,0.15958380699157715,0.14195185899734497,0.14354650676250458,7.349252700805664e-05,0.020256245508790016,0.015575150959193707,0.015486116521060467,0.021963723097542787,0.1399831622838974,0.8606812357902527,0.5083333253860474,0.6850000023841858,88.0,0.6102463006973267,0.34006935358047485,0.41835829615592957,233.17013549804688,160,1776652637.0965686
1,1,1,timeout,10.0,1.0,0.09705785661935806,0.13311856985092163,0.13361111283302307,0.01701079122722149,0.01791221648454666,0.015516508370637894,0.016156872734427452,0.02240103945294863,0.13102209568023682,0.8649381995201111,0.4983333349227905,0.6833333373069763,90.5,0.611109733581543,0.33802327513694763,0.41451582312583923,235.72850036621094,161,1776652637.0965686
